[{
  "name": "Abtswind",
  "adresse": "Balth.-Neumann-Str. 14\n97353 Wiesentheid",
  "landkreis": "Landkreis Kitzingen",
  "telefon": "+49 (0)9383 300",
  "telefax": "+49 (0)9383 9735-33",
  "email": "poststelle@wiesentheid.de",
  "website": "http://www.abtswind.de",
  "long": "10.366666666",
  "lat": "49.766666666",
  "item": "Q334658",
  "typ": "Gemeinde in Deutschland"
}, {
  "name": "Adelsdorf",
  "adresse": "Postfach 1102\n91323 Adelsdorf",
  "landkreis": "Landkreis Erlangen-Höchstadt",
  "telefon": "+49 (0)9195 9432-0",
  "telefax": "+49 (0)9195 9432-190",
  "email": "gemeinde@adelsdorf.de",
  "website": "http://www.adelsdorf.de",
  "long": "10.8935",
  "lat": "49.7112",
  "item": "Q355402",
  "typ": "Gemeinde in Deutschland"
}, {
  "name": "Adelshofen",
  "adresse": "Augsburger Str. 12\n82291 Mammendorf",
  "landkreis": "Landkreis Fürstenfeldbruck",
  "telefon": "+49 (0)8146 225",
  "telefax": "+49 (0)8146 7038",
  "email": "info@vgmammendorf.de",
  "website": "http://www.gemeinde-adelshofen.de",
  "long": "10.166666666",
  "lat": "49.433333333",
  "item": "Q355456",
  "typ": "Gemeinde in Deutschland"
}, {
  "name": "Achslach",
  "adresse": "Postfach 65\n94235 Ruhmannsfelden",
  "landkreis": "Landkreis Regen",
  "telefon": "+49 (0)9929 9401-0",
  "telefax": "+49 (0)9929 9401-40",
  "email": "poststelle@vg-ruhmannsfelden.de",
  "website": "http://www.achslach.de",
  "long": "12.933333333",
  "lat": "48.966666666",
  "item": "Q262395",
  "typ": "Gemeinde in Deutschland"
}, {
  "name": "Abensberg",
  "adresse": "Postfach 1240\n93321 Abensberg",
  "landkreis": "Landkreis Kelheim",
  "telefon": "+49 (0)9443 9103-0",
  "telefax": "+49 (0)9443 9103-50",
  "email": "stadt@abensberg.de",
  "website": "https://www.abensberg.de",
  "long": "11.8595",
  "lat": "48.8109",
  "item": "Q255698",
  "typ": "Stadt in Deutschland"
}, {
  "name": "Adelsried",
  "adresse": "Dillinger Str. 2\n86477 Adelsried",
  "landkreis": "Landkreis Augsburg",
  "telefon": "+49 (0)8294 8692-0",
  "telefax": "+49 (0)8294 8692-40",
  "email": "poststelle@gemeinde-adelsried.de",
  "website": "http://www.gemeinde-adelsried.de",
  "long": "10.716666666",
  "lat": "48.416666666",
  "item": "Q355526",
  "typ": "Gemeinde in Deutschland"
}, {
  "name": "Adelschlag",
  "adresse": "Schulstr. 9\n85128 Nassenfels",
  "landkreis": "Landkreis Eichstätt",
  "telefon": "+49 (0)8424 8911-0",
  "telefax": "+49 (0)8424 8911-55",
  "email": "poststelle@nassenfels.de",
  "website": "https://www.adelschlag.de",
  "long": "11.216666666",
  "lat": "48.833333333",
  "item": "Q355390",
  "typ": "Gemeinde in Deutschland"
}, {
  "name": "Absberg",
  "adresse": "Reutbergstr. 34\n91710 Gunzenhausen",
  "landkreis": "Landkreis Weißenburg-Gunzenhausen",
  "telefon": "+49 (0)9831 6774-0",
  "telefax": "+49 (0)9831 6774-26",
  "email": "poststelle@vggunzenhausen.de",
  "website": "http://www.absberg.de",
  "long": "10.881111111",
  "lat": "49.143611111",
  "item": "Q331886",
  "typ": "Gemeinde in Deutschland"
}, {
  "name": "Adelshofen",
  "adresse": "Laiblestr. 31\n91541 Rothenburg ob der Tauber",
  "landkreis": "Landkreis Ansbach",
  "telefon": "+49 (0)9865 336",
  "telefax": "+49 (0)9865 659",
  "email": "gemeinde@adelshofen.de",
  "website": "https://www.adelshofen.de",
  "long": "10.166666666",
  "lat": "49.433333333",
  "item": "Q355456",
  "typ": "Gemeinde in Deutschland"
}, {
  "name": "Abenberg",
  "adresse": "Postfach 8\n91183 Abenberg",
  "landkreis": "Landkreis Roth",
  "telefon": "+49 (0)9178 9880-0",
  "telefax": "+49 (0)9178 9880-80",
  "email": "info@stadt-abenberg.de",
  "website": "http://www.abenberg.de",
  "long": "10.961944444",
  "lat": "49.240555555",
  "item": "Q261822",
  "typ": "Stadt in Deutschland"
}, {
  "name": "Adlkofen",
  "adresse": "Hauptstr. 18\n84166 Adlkofen",
  "landkreis": "Landkreis Landshut",
  "telefon": "+49 (0)8707 929-0",
  "telefax": "+49 (0)8707 929-20",
  "email": "poststelle@adlkofen.de",
  "website": "http://www.adlkofen.de",
  "long": "12.266666666",
  "lat": "48.55",
  "item": "Q252939",
  "typ": "Gemeinde in Deutschland"
}, {
  "name": "Aholming",
  "adresse": "Untere Römerstr. 2\n94527 Aholming",
  "landkreis": "Landkreis Deggendorf",
  "telefon": "+49 (0)9938 9505-0",
  "telefax": "+49 (0)9938 9505-22",
  "email": "gemeinde@gemeinde-aholming.de",
  "website": "http://www.aholming.de",
  "long": "12.916666666",
  "lat": "48.733333333",
  "item": "Q256868",
  "typ": "Gemeinde in Deutschland"
}, {
  "name": "Aham",
  "adresse": "Postfach 20\n84175 Gerzen",
  "landkreis": "Landkreis Landshut",
  "telefon": "+49 (0)8744 9604-0",
  "telefax": "+49 (0)8744 9604-91",
  "email": "info@gerzen.de",
  "website": "http://www.gerzen.de",
  "long": "12.466666666",
  "lat": "48.533333333",
  "item": "Q253496",
  "typ": "Gemeinde in Deutschland"
}, {
  "name": "Aholfing",
  "adresse": "Schloßplatz 2\n94369 Rain",
  "landkreis": "Landkreis Straubing-Bogen",
  "telefon": "+49 (0)9429 9401-0",
  "telefax": "+49 (0)9429 9401-26",
  "email": "info@vgem-rain.de",
  "website": "http://www.aholfing.de",
  "long": "12.466666666",
  "lat": "48.95",
  "item": "Q256234",
  "typ": "Gemeinde in Deutschland"
}, {
  "name": "Affing",
  "adresse": "Mühlweg 2\n86444 Affing",
  "landkreis": "Landkreis Aichach-Friedberg",
  "telefon": "+49 (0)8207 9600-0",
  "telefax": "+49 (0)8207 8645",
  "email": "gemeinde@affing.de",
  "website": "http://www.affing.de",
  "long": "10.981388888",
  "lat": "48.458055555",
  "item": "Q259662",
  "typ": "Gemeinde in Deutschland"
}, {
  "name": "Ahorntal",
  "adresse": "Kirchahorn 63\n95491 Ahorntal",
  "landkreis": "Landkreis Bayreuth",
  "telefon": "+49 (0)9202 200",
  "telefax": "+49 (0)9202 1572",
  "email": "poststelle@ahorntal.bayern.de",
  "website": "https://www.ahorntal.de",
  "long": "11.433333333",
  "lat": "49.85",
  "item": "Q269617",
  "typ": "Gemeinde in Deutschland"
}, {
  "name": "Adelzhausen",
  "adresse": "Postfach 64\n86451 Dasing",
  "landkreis": "Landkreis Aichach-Friedberg",
  "telefon": "+49 (0)8258 1474",
  "telefax": "+49 (0)8258 1378",
  "email": "info@adelzhausen.de",
  "website": "http://www.adelzhausen.de",
  "long": "11.133333333",
  "lat": "48.35",
  "item": "Q257338",
  "typ": "Gemeinde in Deutschland"
}, {
  "name": "Aicha vorm Wald",
  "adresse": "Hofmarkstr. 2\n94529 Aicha vorm Wald",
  "landkreis": "Landkreis Passau",
  "telefon": "+49 (0)8544 9630-0",
  "telefax": "+49 (0)8544 9630-20",
  "email": "info@aichavormwald.de",
  "website": "https://aichavormwald.de",
  "long": "13.291111111",
  "lat": "48.673611111",
  "item": "Q259111",
  "typ": "Gemeinde in Deutschland"
}, {
  "name": "Aichach",
  "adresse": "Postfach 1110\n86542 Aichach",
  "landkreis": "Landkreis Aichach-Friedberg",
  "telefon": "+49 (0)8251 902-0",
  "telefax": "+49 (0)8251 902-70",
  "email": "rathaus@aichach.de",
  "website": "http://www.aichach.de",
  "long": "11.133333333",
  "lat": "48.45",
  "item": "Q251678",
  "typ": "Stadt in Deutschland"
}, {
  "name": "Ahorn",
  "adresse": "Hauptstr. 40\n96482 Ahorn",
  "landkreis": "Landkreis Coburg",
  "telefon": "+49 (0)9561 8141-0",
  "telefax": "+49 (0)9561 8141-11",
  "email": "info@ahorn.de",
  "website": "http://www.ahorn.de",
  "long": "9.539722222",
  "lat": "49.500833333",
  "item": "Q61871",
  "typ": "Gemeinde in Deutschland"
}, {
  "name": "Aidenbach",
  "adresse": "Postfach 50\n94497 Aidenbach",
  "landkreis": "Landkreis Passau",
  "telefon": "+49 (0)8543 9603-0",
  "telefax": "+49 (0)8543 9603-30",
  "email": "info@aidenbach.de",
  "website": "http://www.aidenbach.de",
  "long": "13.089444444",
  "lat": "48.567777777",
  "item": "Q254501",
  "typ": "Gemeinde in Deutschland"
}, {
  "name": "Ainring",
  "adresse": "Salzburger Str. 48\n83404 Ainring",
  "landkreis": "Landkreis Berchtesgadener Land",
  "telefon": "+49 (0)8654 575-0",
  "telefax": "+49 (0)8654 575-75",
  "email": "gemeinde@ainring.de",
  "website": "http://www.ainring.de",
  "long": "12.942777777",
  "lat": "47.813611111",
  "item": "Q406109",
  "typ": "Gemeinde in Deutschland"
}, {
  "name": "Aitrang",
  "adresse": "Füssener Str. 12\n87640 Biessenhofen",
  "landkreis": "Landkreis Ostallgäu",
  "telefon": "+49 (0)8343 218",
  "telefax": "+49 (0)8343 1308",
  "email": "info@aitrang.bayern.de",
  "website": "http://www.aitrang.de",
  "long": "10.533333333",
  "lat": "47.816666666",
  "item": "Q411004",
  "typ": "Gemeinde in Deutschland"
}, {
  "name": "Aidhausen",
  "adresse": "Postfach 1134\n97457 Hofheim i.UFr.",
  "landkreis": "Landkreis Haßberge",
  "telefon": "+49 (0)9523 9229-0",
  "telefax": "+49 (0)9523 267",
  "email": "poststelle@vghofheim.de",
  "website": "http://www.aidhausen.de",
  "long": "10.435833333",
  "lat": "50.155",
  "item": "Q404041",
  "typ": "Gemeinde in Deutschland"
}, {
  "name": "Aiglsbach",
  "adresse": "Postfach 1349\n84044 Mainburg",
  "landkreis": "Landkreis Kelheim",
  "telefon": "+49 (0)8751 8634-0",
  "telefax": "+49 (0)8751 8634-0",
  "email": "vg@vg-mainburg.de",
  "website": "https://www.aiglsbach.de",
  "long": "11.716666666",
  "lat": "48.7",
  "item": "Q258021",
  "typ": "Gemeinde in Deutschland"
}, {
  "name": "Albaching",
  "adresse": "Postfach 27\n83537 Pfaffing",
  "landkreis": "Landkreis Rosenheim",
  "telefon": "+49 (0)8076 9198-16",
  "telefax": "+49 (0)8076 9198-13",
  "email": "poststelle@vgem-pfaffing.de",
  "website": "http://www.albaching.de",
  "long": "12.115277777",
  "lat": "48.1125",
  "item": "Q256920",
  "typ": "Gemeinde in Deutschland"
}, {
  "name": "Aiterhofen",
  "adresse": "Postfach 51\n94328 Aiterhofen",
  "landkreis": "Landkreis Straubing-Bogen",
  "telefon": "+49 (0)9421 9969-0",
  "telefax": "+49 (0)9421 9969-25",
  "email": "vorzimmer@aiterhofen.de",
  "website": "http://www.aiterhofen.de",
  "long": "12.616666666",
  "lat": "48.85",
  "item": "Q410391",
  "typ": "Gemeinde in Deutschland"
}, {
  "name": "Aichen",
  "adresse": "Bgm.-Haide-Str. 1\n86473 Ziemetshausen",
  "landkreis": "Landkreis Günzburg",
  "telefon": "+49 (0)8284 361",
  "telefax": "+49 (0)8284 1827",
  "email": "rathaus@vg.ziemetshausen.de",
  "website": "https://www.vgziemetshausen.de",
  "long": "10.542222222",
  "lat": "48.226666666",
  "item": "Q403583",
  "typ": "Gemeinde in Deutschland"
}, {
  "name": "Aislingen",
  "adresse": "Hochstiftstr. 2\n89438 Holzheim",
  "landkreis": "Landkreis Dillingen a.d.Donau",
  "telefon": "+49 (0)9075 222",
  "telefax": "+49 (0)9075 9509-23",
  "email": "vg.holzheim@bndlg.de",
  "website": "http://www.aislingen.de",
  "long": "10.45",
  "lat": "48.5",
  "item": "Q384382",
  "typ": "Gemeinde in Deutschland"
}, {
  "name": "Aindling",
  "adresse": "Marktplatz 1\n86447 Aindling",
  "landkreis": "Landkreis Aichach-Friedberg",
  "telefon": "+49 (0)8237 9607-0",
  "telefax": "+49 (0)8237 9607-960750",
  "email": "info@vg-aindling.de",
  "website": "http://www.aindling.de",
  "long": "10.95",
  "lat": "48.516666666",
  "item": "Q258041",
  "typ": "Gemeinde in Deutschland"
}, {
  "name": "Allmannshofen",
  "adresse": "Schäfflerstr. 6\n86695 Nordendorf",
  "landkreis": "Landkreis Augsburg",
  "telefon": "+49 (0)8273 998687",
  "telefax": "+49 (0)8273 998688-30",
  "email": "info@vg-nordendorf.de",
  "website": "http://www.allmannshofen.de",
  "long": "10.809166666",
  "lat": "48.611944444",
  "item": "Q506057",
  "typ": "Gemeinde in Deutschland"
}, {
  "name": "Albertshofen",
  "adresse": "Friedrich-Ebert-Straße 5\n97318 Kitzingen",
  "landkreis": "Landkreis Kitzingen",
  "telefon": "+49 (0)9321 31236",
  "telefax": "+49 (0)9321 9166-150",
  "email": "info@vgem-kitzingen.de",
  "website": "http://www.albertshofen.de/",
  "long": "10.166666666",
  "lat": "49.766666666",
  "item": "Q204953",
  "typ": "Gemeinde in Deutschland"
}, {
  "name": "Aldersbach",
  "adresse": "Klosterplatz 1\n94501 Aldersbach",
  "landkreis": "Landkreis Passau",
  "telefon": "+49 (0)8543 9610-0",
  "telefax": "+49 (0)8543 9610-30",
  "email": "info@aldersbach.de",
  "website": "http://www.aldersbach.de",
  "long": "13.085555555",
  "lat": "48.588055555",
  "item": "Q279246",
  "typ": "Gemeinde in Deutschland"
}, {
  "name": "Alerheim",
  "adresse": "Beuthener Str. 6\n86720 Nördlingen",
  "landkreis": "Landkreis Donau-Ries",
  "telefon": "+49 (0)9085 424",
  "telefax": "+49 (0)9085 1810",
  "email": "gemeinde@alerheim.de",
  "website": "https://www.alerheim.de",
  "long": "10.616666666",
  "lat": "48.85",
  "item": "Q505789",
  "typ": "Gemeinde in Deutschland"
}, {
  "name": "Alling",
  "adresse": "Am Kirchberg 6\n82239 Alling",
  "landkreis": "Landkreis Fürstenfeldbruck",
  "telefon": "+49 (0)8141 379490-0",
  "telefax": "+49 (0)8141 379490-199",
  "email": "info@alling.de",
  "website": "https://www.alling.de",
  "long": "11.3",
  "lat": "48.15",
  "item": "Q256260",
  "typ": "Gemeinde in Deutschland"
}, {
  "name": "Alesheim",
  "adresse": "Hauptstr. 37\n91802 Meinheim",
  "landkreis": "Landkreis Weißenburg-Gunzenhausen",
  "telefon": "+49 (0)9146 94294-0",
  "telefax": "+49 (0)9146 94294-49",
  "email": "info@vgem-altmuehltal.de",
  "website": "http://www.gemeinde-alesheim.de/",
  "long": "10.866666666",
  "lat": "49.05",
  "item": "Q550719",
  "typ": "Gemeinde in Deutschland"
}, {
  "name": "Aletshausen",
  "adresse": "Rittlen 6\n86381 Krumbach (Schwaben)",
  "landkreis": "Landkreis Günzburg",
  "telefon": "+49 (0)8282 3374",
  "telefax": "+49 (0)8282 894775",
  "email": "info@vg-krumbach.de",
  "website": "http://www.aletshausen.de",
  "long": "10.383333333",
  "lat": "48.2",
  "item": "Q516315",
  "typ": "Gemeinde in Deutschland"
}, {
  "name": "Allershausen",
  "adresse": "Postfach 1143\n85387 Allershausen",
  "landkreis": "Landkreis Freising",
  "telefon": "+49 (0)8166 6793-0",
  "telefax": "+49 (0)8166 6793-33",
  "email": "gemeinde@allershausen.de",
  "website": "http://www.allershausen.de",
  "long": "11.591666666",
  "lat": "48.425",
  "item": "Q218427",
  "typ": "Gemeinde in Deutschland"
}, {
  "name": "Alfeld",
  "adresse": "Postfach 40\n91228 Happurg",
  "landkreis": "Landkreis Nürnberger Land",
  "telefon": "+49 (0)9157 236",
  "telefax": "+49 (0)9157 927628",
  "email": "info@alfeld-mfr.de",
  "website": "http://www.alfeld-mfr.de",
  "long": "9.826944444",
  "lat": "51.988611111",
  "item": "Q486543",
  "typ": "Stadt in Deutschland"
}, {
  "name": "Allersberg",
  "adresse": "Postfach 20\n90580 Allersberg",
  "landkreis": "Landkreis Roth",
  "telefon": "+49 (0)9176 509-0",
  "telefax": "+49 (0)9176 509-21",
  "email": "info@allersberg.de",
  "website": "http://www.allersberg.de",
  "long": "11.233333333",
  "lat": "49.25",
  "item": "Q588957",
  "typ": "Gemeinde in Deutschland"
}, {
  "name": "Altenbuch",
  "adresse": "Hauptstr. 132\n97909 Stadtprozelten",
  "landkreis": "Landkreis Miltenberg",
  "telefon": "+49 (0)9392 9398-0",
  "telefax": "+49 (0)9392 9398-2",
  "email": "info@altenbuch.de",
  "website": "http://www.altenbuch.de",
  "long": "9.416666666",
  "lat": "49.833333333",
  "item": "Q436841",
  "typ": "Gemeinde in Deutschland"
}, {
  "name": "Altenmünster",
  "adresse": "Rathausplatz 1\n86450 Altenmünster",
  "landkreis": "Landkreis Augsburg",
  "telefon": "+49 (0)8295 9690-0",
  "telefax": "+49 (0)8295 9690-40",
  "email": "poststelle@altenmuenster.de",
  "website": "https://www.altenmuenster.de",
  "long": "10.6",
  "lat": "48.466666666",
  "item": "Q437465",
  "typ": "Gemeinde in Deutschland"
}, {
  "name": "Altdorf b.Nürnberg",
  "adresse": "Röderstraße 10\n90518 Altdorf b.Nürnberg",
  "landkreis": "Landkreis Nürnberger Land",
  "telefon": "+49 (0)9187 807-0",
  "telefax": "+49 (0)9187 807-1290",
  "email": "stadt@altdorf.de",
  "website": "http://www.altdorf.de",
  "long": "11.356944444",
  "lat": "49.3875",
  "item": "Q435295",
  "typ": "Stadt in Deutschland"
}, {
  "name": "Altenkunstadt",
  "adresse": "Marktplatz 2\n96264 Altenkunstadt",
  "landkreis": "Landkreis Lichtenfels",
  "telefon": "+49 (0)9572 387-0",
  "telefax": "+49 (0)9572 387-87",
  "email": "gemeinde@altenkunstadt.de",
  "website": "http://www.altenkunstadt.de",
  "long": "11.25",
  "lat": "50.116666666",
  "item": "Q437368",
  "typ": "Gemeinde in Deutschland"
}, {
  "name": "Altenmarkt a.d.Alz",
  "adresse": "Postfach 1140\n83350 Altenmarkt a.d.Alz",
  "landkreis": "Landkreis Traunstein",
  "telefon": "+49 (0)8621 9845-0",
  "telefax": "+49 (0)8621 9845-22",
  "email": "info@altenmarkt.de",
  "website": "https://www.altenmarkt.de",
  "long": "12.5333",
  "lat": "48.0",
  "item": "Q280188",
  "typ": "Gemeinde in Deutschland"
}, {
  "name": "Altenstadt",
  "adresse": "Marienplatz 2\n86972 Altenstadt",
  "landkreis": "Landkreis Weilheim-Schongau",
  "telefon": "+49 (0)8861 2300-0",
  "telefax": "+49 (0)8861 2300-10",
  "email": "gemeinde.altenstadt@altenstadt-wm.bayern.de",
  "website": "http://www.altenstadt-oberbayern.de",
  "long": "8.945",
  "lat": "50.285555555",
  "item": "Q437585",
  "typ": "Gemeinde in Deutschland"
}, {
  "name": "Altendorf",
  "adresse": "Jurastr. 1\n96146 Altendorf",
  "landkreis": "Landkreis Bamberg",
  "telefon": "+49 (0)9545 4433-0",
  "telefax": "+49 (0)9545 4433-15",
  "email": "poststelle@altendorf-gemeinde.de",
  "website": "http://www.altendorf-gemeinde.de",
  "long": "11.016666666",
  "lat": "49.8",
  "item": "Q437010",
  "typ": "Gemeinde in Deutschland"
}, {
  "name": "Altdorf",
  "adresse": "Dekan-Wagner-Str. 13\n84032 Altdorf",
  "landkreis": "Landkreis Landshut",
  "telefon": "+49 (0)871 303-0",
  "telefax": "+49 (0)871 303-600",
  "email": "info@markt-altdorf.de",
  "website": "http://www.markt-altdorf.de",
  "long": "9.270833333",
  "lat": "48.594166666",
  "item": "Q81185",
  "typ": "Gemeinde in Deutschland"
}, {
  "name": "Alteglofsheim",
  "adresse": "Bahnhofstraße 10\n93087 Alteglofsheim",
  "landkreis": "Landkreis Regensburg",
  "telefon": "+49 (0)9453 931-0",
  "telefax": "+49 (0)9453 931-30",
  "email": "vg.alteglofsheim@realrgb.de",
  "website": "http://www.gemeinde-alteglofsheim.de",
  "long": "12.203611111",
  "lat": "48.92",
  "item": "Q436522",
  "typ": "Gemeinde in Deutschland"
}, {
  "name": "Altendorf",
  "adresse": "Postfach 1160\n92501 Nabburg",
  "landkreis": "Landkreis Schwandorf",
  "telefon": "+49 (0)9675 237",
  "telefax": "+49 (0)9433 18-33",
  "email": "poststelle@vg-nabburg.de",
  "website": "https://www.gemeinde-altendorf.de",
  "long": "11.016666666",
  "lat": "49.8",
  "item": "Q437010",
  "typ": "Gemeinde in Deutschland"
}, {
  "name": "Althegnenberg",
  "adresse": "Augsburger Str. 12\n82291 Mammendorf",
  "landkreis": "Landkreis Fürstenfeldbruck",
  "telefon": "+49 (0)8202 8039",
  "telefax": "+49 (0)8202 8868",
  "email": "info@vgmammendorf.de",
  "website": "http://www.althegnenberg.de",
  "long": "11.066666666",
  "lat": "48.233333333",
  "item": "Q440661",
  "typ": "Gemeinde in Deutschland"
}, {
  "name": "Altenstadt",
  "adresse": "Hindenburgstr. 1\n89281 Altenstadt",
  "landkreis": "Landkreis Neu-Ulm",
  "telefon": "+49 (0)8337 721-0",
  "telefax": "+49 (0)8337 721-10",
  "email": "poststelle@altenstadt-iller.de",
  "website": "http://www.altenstadt-iller.de",
  "long": "8.945",
  "lat": "50.285555555",
  "item": "Q437585",
  "typ": "Gemeinde in Deutschland"
}, {
  "name": "Altusried",
  "adresse": "Postfach 1146\n87449 Altusried",
  "landkreis": "Landkreis Oberallgäu",
  "telefon": "+49 (0)8373 299-0",
  "telefax": "+49 (0)8373 299-11",
  "email": "rathaus@altusried.de",
  "website": "http://www.altusried.de",
  "long": "10.216666666",
  "lat": "47.8",
  "item": "Q446342",
  "typ": "Gemeinde in Deutschland"
}, {
  "name": "Altenthann",
  "adresse": "Wörther Straße 5\n93093 Donaustauf",
  "landkreis": "Landkreis Regensburg",
  "telefon": "+49 (0)9403 9502-0",
  "telefax": "+49 (0)9403 9502-80",
  "email": "poststelle@vg-donaustauf.de",
  "website": "http://www.altenthann.de",
  "long": "12.303611111",
  "lat": "49.092777777",
  "item": "Q437679",
  "typ": "Gemeinde in Deutschland"
}, {
  "name": "Altenstadt a.d.Waldnaab",
  "adresse": "Hauptstr. 6\n92665 Altenstadt a.d.Waldnaab",
  "landkreis": "Landkreis Neustadt a.d.Waldnaab",
  "telefon": "+49 (0)9602 6331-0",
  "telefax": "+49 (0)9602 6331-44",
  "email": "poststelle@altenstadt-waldnaab.de",
  "website": "http://www.altenstadt-waldnaab.de",
  "long": "12.166666666",
  "lat": "49.716666666",
  "item": "Q256148",
  "typ": "Gemeinde in Deutschland"
}, {
  "name": "Altertheim",
  "adresse": "Am Rathaus 1\n97270 Kist",
  "landkreis": "Landkreis Würzburg",
  "telefon": "+49 (0)9307 223",
  "telefax": "+49 (0)9307 990880",
  "email": "info@vgem-kist.bayern.de",
  "website": "http://www.altertheim.de",
  "long": "9.75",
  "lat": "49.716666666",
  "item": "Q259674",
  "typ": "Gemeinde in Deutschland"
}, {
  "name": "Altötting",
  "adresse": "Kapellplatz 2a\n84503 Altötting",
  "landkreis": "Landkreis Altötting",
  "telefon": "+49 (0)8671 5062-0",
  "telefax": "+49 (0)8671 881700",
  "email": "info@altoetting.de",
  "website": "http://www.altoetting.de",
  "long": "12.678333333",
  "lat": "48.226666666",
  "item": "Q256669",
  "typ": "Stadt in Deutschland"
}, {
  "name": "Altmannstein",
  "adresse": "Marktplatz 4\n93336 Altmannstein",
  "landkreis": "Landkreis Eichstätt",
  "telefon": "+49 (0)9446 9021-0",
  "telefax": "+49 (0)9446 9021-21",
  "email": "poststelle@altmannstein.de",
  "website": "http://www.altmannstein.de",
  "long": "11.65",
  "lat": "48.9",
  "item": "Q442666",
  "typ": "Gemeinde in Deutschland"
}, {
  "name": "Altomünster",
  "adresse": "St. Altohof 1\n85250 Altomünster",
  "landkreis": "Landkreis Dachau",
  "telefon": "+49 (0)8254 999-70",
  "telefax": "+49 (0)8254 999-736",
  "email": "poststelle@altomuenster.bayern.de",
  "website": "http://www.altomuenster.de",
  "long": "11.25",
  "lat": "48.383333333",
  "item": "Q443815",
  "typ": "Gemeinde in Deutschland"
}, {
  "name": "Altfraunhofen",
  "adresse": "Rathausplatz 1\n84169 Altfraunhofen",
  "landkreis": "Landkreis Landshut",
  "telefon": "+49 (0)8705 928-0",
  "telefax": "+49 (0)8705 928-99",
  "email": "poststelle@vg-altfraunhofen.de",
  "website": "http://www.altfraunhofen.de",
  "long": "12.167222222",
  "lat": "48.448611111",
  "item": "Q264385",
  "typ": "Gemeinde in Deutschland"
}, {
  "name": "Ammerthal",
  "adresse": "Mühlweg 16a\n92260 Ammerthal",
  "landkreis": "Landkreis Amberg-Sulzbach",
  "telefon": "+49 (0)9628 9233-0",
  "telefax": "+49 (0)9628 9233-20",
  "email": "gemeinde@ammerthal.de",
  "website": "http://www.ammerthal.de",
  "long": "11.76181",
  "lat": "49.44123",
  "item": "Q473259",
  "typ": "Gemeinde in Deutschland"
}, {
  "name": "Amerang",
  "adresse": "Wasserburger Str. 11\n83123 Amerang",
  "landkreis": "Landkreis Rosenheim",
  "telefon": "+49 (0)8075 9197-0",
  "telefax": "+49 (0)8075 9197-19",
  "email": "info@amerang.de",
  "website": "http://www.amerang.de",
  "long": "12.309444444",
  "lat": "47.991666666",
  "item": "Q463022",
  "typ": "Gemeinde in Deutschland"
}, {
  "name": "Alzenau",
  "adresse": "Hanauer Str. 1\n63755 Alzenau",
  "landkreis": "Landkreis Aschaffenburg",
  "telefon": "+49 (0)6023 502-0",
  "telefax": "+49 (0)6023 502-188",
  "email": "alzenau@alzenau.de",
  "website": "http://www.alzenau.de",
  "long": "9.0497",
  "lat": "50.0881",
  "item": "Q450697",
  "typ": "Stadt in Deutschland"
}, {
  "name": "Ampfing",
  "adresse": "Schweppermannstraße 1\n84539 Ampfing",
  "landkreis": "Landkreis Mühldorf a.Inn",
  "telefon": "+49 (0)8636 5009-0",
  "telefax": "+49 (0)8636 5009-80",
  "email": "poststelle@ampfing.bayern.de",
  "website": "http://www.ampfing.de",
  "long": "12.416666666",
  "lat": "48.266666666",
  "item": "Q386360",
  "typ": "Gemeinde in Deutschland"
}, {
  "name": "Amerdingen",
  "adresse": "Beuthener Str. 6\n86720 Nördlingen",
  "landkreis": "Landkreis Donau-Ries",
  "telefon": "+49 (0)9089 237",
  "telefax": "+49 (0)9089 1275",
  "email": "gemeinde@amerdingen.de",
  "website": "http://www.amerdingen.de",
  "long": "10.483333333",
  "lat": "48.733333333",
  "item": "Q430649",
  "typ": "Gemeinde in Deutschland"
}, {
  "name": "Ammerndorf",
  "adresse": "Cadolzburger Str. 3\n90614 Ammerndorf",
  "landkreis": "Landkreis Fürth",
  "telefon": "+49 (0)9127 9555-0",
  "telefax": "+49 (0)9127 9555-13",
  "email": "rathaus@ammerndorf.de",
  "website": "http://www.ammerndorf.de",
  "long": "10.851388888",
  "lat": "49.420833333",
  "item": "Q473162",
  "typ": "Gemeinde in Deutschland"
}, {
  "name": "Amorbach",
  "adresse": "Postfach 1280\n63913 Amorbach",
  "landkreis": "Landkreis Miltenberg",
  "telefon": "+49 (0)9373 209-0",
  "telefax": "+49 (0)9373 209-33",
  "email": "info@stadt-amorbach.de",
  "website": "http://www.amorbach.de",
  "long": "9.216666666",
  "lat": "49.633333333",
  "item": "Q474051",
  "typ": "Stadt in Deutschland"
}, {
  "name": "Amberg",
  "adresse": "Hauptstr. 1\n86854 Amberg",
  "landkreis": "Landkreis Unterallgäu",
  "telefon": "+49 (0)8241 4659",
  "telefax": "+49 (0)8241 7854",
  "email": "rathaus@gemeinde-amberg.de",
  "website": "http://www.gemeinde-amberg.de",
  "long": "10.683333333",
  "lat": "48.066666666",
  "item": "Q457139",
  "typ": "Gemeinde in Deutschland"
}, {
  "name": "Amberg",
  "adresse": "Postfach 2155\n92211 Amberg",
  "landkreis": "Kreisfreie Stadt",
  "telefon": "+49 (0)9621 10-0",
  "telefax": "+49 (0)9621 10-1203",
  "email": "stadt@amberg.de",
  "website": "http://www.amberg.de",
  "long": "10.683333333",
  "lat": "48.066666666",
  "item": "Q457139",
  "typ": "Gemeinde in Deutschland"
}, {
  "name": "Andechs",
  "adresse": "Andechser Str. 16\n82346 Andechs",
  "landkreis": "Landkreis Starnberg",
  "telefon": "+49 (0)8152 9325-0",
  "telefax": "+49 (0)8152 9325-23",
  "email": "info@gemeinde-andechs.de",
  "website": "http://www.gemeinde-andechs.de",
  "long": "11.184722222",
  "lat": "47.966666666",
  "item": "Q165958",
  "typ": "Gemeinde in Deutschland"
}, {
  "name": "Apfeltrach",
  "adresse": "Marktstr. 19\n87742 Dirlewang",
  "landkreis": "Landkreis Unterallgäu",
  "telefon": "+49 (0)8261 1757",
  "telefax": "+49 (0)8261 5960",
  "email": "apfeltrach@vg-dirlewang.de",
  "website": "http://www.apfeltrach.de",
  "long": "10.5",
  "lat": "48.016666666",
  "item": "Q279628",
  "typ": "Gemeinde in Deutschland"
}, {
  "name": "Ansbach",
  "adresse": "Postfach 607\n91511 Ansbach",
  "landkreis": "Kreisfreie Stadt",
  "telefon": "+49 (0)981 51-0",
  "telefax": "+49 (0)981 51-303",
  "email": "stadt@ansbach.de",
  "website": "http://www.ansbach.de",
  "long": "10.583333333",
  "lat": "49.3",
  "item": "Q14859",
  "typ": "Stadt in Deutschland"
}, {
  "name": "Antdorf",
  "adresse": "Hofmark 1\n82392 Habach",
  "landkreis": "Landkreis Weilheim-Schongau",
  "telefon": "+49 (0)8856 91999",
  "telefax": "+49 (0)8856 2001",
  "email": "gemeinde@antdorf.bayern.de",
  "website": "http://www.antdorf.de",
  "long": "11.3",
  "lat": "47.75",
  "item": "Q532016",
  "typ": "Gemeinde in Deutschland"
}, {
  "name": "Anzing",
  "adresse": "Schulstr. 1\n85646 Anzing",
  "landkreis": "Landkreis Ebersberg",
  "telefon": "+49 (0)8121 4744-0",
  "telefax": "+49 (0)8121 4744-22",
  "email": "info@anzing.bayern.de",
  "website": "http://www.anzing.de",
  "long": "11.85",
  "lat": "48.15",
  "item": "Q522378",
  "typ": "Gemeinde in Deutschland"
}, {
  "name": "Arberg",
  "adresse": "Marktplatz 13\n91722 Arberg",
  "landkreis": "Landkreis Ansbach",
  "telefon": "+49 (0)9822 8221-0",
  "telefax": "+49 (0)9822 8221-20",
  "email": "poststelle@arberg.de",
  "website": "http://www.arberg.de",
  "long": "10.616666666",
  "lat": "49.133333333",
  "item": "Q506190",
  "typ": "Gemeinde in Deutschland"
}, {
  "name": "Arnbruck",
  "adresse": "Gemeindezentrum 1\n93471 Arnbruck",
  "landkreis": "Landkreis Regen",
  "telefon": "+49 (0)9945 9410-0",
  "telefax": "+49 (0)9945 9410-33",
  "email": "poststelle@arnbruck.landkreis-regen.de",
  "website": "http://www.arnbruck.de",
  "long": "13.0",
  "lat": "49.133333333",
  "item": "Q491407",
  "typ": "Gemeinde in Deutschland"
}, {
  "name": "Apfeldorf",
  "adresse": "Untergasse 3\n86934 Reichling",
  "landkreis": "Landkreis Landsberg am Lech",
  "telefon": "+49 (0)8869 229",
  "telefax": "+49 (0)8869 92080",
  "email": "rathaus@apfeldorf.de",
  "website": "http://www.apfeldorf.de",
  "long": "10.933333333",
  "lat": "47.9",
  "item": "Q522417",
  "typ": "Gemeinde in Deutschland"
}, {
  "name": "Aresing",
  "adresse": "St.-Martin-Str. 16\n86561 Aresing",
  "landkreis": "Landkreis Neuburg-Schrobenhausen",
  "telefon": "+49 (0)8252 91044-50",
  "telefax": "+49 (0)8252 6404",
  "email": "gemeinde@aresing.de",
  "website": "http://www.aresing.de",
  "long": "11.3",
  "lat": "48.533333333",
  "item": "Q522443",
  "typ": "Gemeinde in Deutschland"
}, {
  "name": "Arnschwang",
  "adresse": "Kirchgasse 10\n93473 Arnschwang",
  "landkreis": "Landkreis Cham",
  "telefon": "+49 (0)9977 9400-0",
  "telefax": "+49 (0)9977 9400-33",
  "email": "poststelle@arnschwang.de",
  "website": "http://www.arnschwang.de",
  "long": "12.815138888",
  "lat": "49.272111111",
  "item": "Q522320",
  "typ": "Gemeinde in Deutschland"
}, {
  "name": "Anger",
  "adresse": "Dorfplatz 4\n83454 Anger",
  "landkreis": "Landkreis Berchtesgadener Land",
  "telefon": "+49 (0)8656 9889-0",
  "telefax": "+49 (0)8656 9889-15",
  "email": "gemeinde@anger.de",
  "website": "http://www.anger.de",
  "long": "12.85",
  "lat": "47.8",
  "item": "Q260704",
  "typ": "Gemeinde in Deutschland"
}, {
  "name": "Aschau a.Inn",
  "adresse": "Hauptstr. 4\n84544 Aschau a.Inn",
  "landkreis": "Landkreis Mühldorf a.Inn",
  "telefon": "+49 (0)8638 9435-0",
  "telefax": "+49 (0)8638 9435-99",
  "email": "poststelle@aschau-a-inn.bayern.de",
  "website": "http://www.aschau-a-inn.de",
  "long": "12.35",
  "lat": "48.2",
  "item": "Q522584",
  "typ": "Gemeinde in Deutschland"
}, {
  "name": "Arnstorf",
  "adresse": "Marktplatz 8\n94424 Arnstorf",
  "landkreis": "Landkreis Rottal-Inn",
  "telefon": "+49 (0)8723 9610-0",
  "telefax": "+49 (0)8723 9610-40",
  "email": "poststelle@arnstorf.de",
  "website": "http://www.arnstorf.de",
  "long": "12.816666666",
  "lat": "48.566666666",
  "item": "Q582608",
  "typ": "Gemeinde in Deutschland"
}, {
  "name": "Arrach",
  "adresse": "Pfarrer-Busch-Str. 8\n93474 Arrach",
  "landkreis": "Landkreis Cham",
  "telefon": "+49 (0)9943 9411-0",
  "telefax": "+49 (0)9943 9411-30",
  "email": "poststelle@gemeinde-arrach.de",
  "website": "http://www.gemeinde-arrach.de/",
  "long": "12.99387",
  "lat": "49.19149",
  "item": "Q545405",
  "typ": "Gemeinde in Deutschland"
}, {
  "name": "Ascha",
  "adresse": "Burgstr. 1\n94360 Mitterfels",
  "landkreis": "Landkreis Straubing-Bogen",
  "telefon": "+49 (0)9961 9400-12",
  "telefax": "+49 (0)9961 9400-20",
  "email": "Poststelle@mitterfels.de",
  "website": "http://www.ascha.de",
  "long": "12.633333333",
  "lat": "49.0",
  "item": "Q582598",
  "typ": "Gemeinde in Deutschland"
}, {
  "name": "Aschaffenburg",
  "adresse": "Postfach 100163\n63701 Aschaffenburg",
  "landkreis": "Kreisfreie Stadt",
  "telefon": "+49 (0)6021 330-0",
  "telefax": "+49 (0)6021 330-720",
  "email": "poststelle@aschaffenburg.de",
  "website": "https://www.aschaffenburg.de",
  "long": "9.1478",
  "lat": "49.97575",
  "item": "Q3942",
  "typ": "Stadt in Deutschland"
}, {
  "name": "Aschau i.Chiemgau",
  "adresse": "Kampenwandstraße 36\n83225 Aschau i.Chiemgau",
  "landkreis": "Landkreis Rosenheim",
  "telefon": "+49 (0)8052 95109-0",
  "telefax": "+49 (0)8052 95109-71",
  "email": "gemeinde@aschau.de",
  "website": "http://www.gemeinde-aschau.de",
  "long": "12.32297",
  "lat": "47.77689",
  "item": "Q127827",
  "typ": "Gemeinde in Deutschland"
}, {
  "name": "Arzberg",
  "adresse": "Postfach 1145\n95653 Arzberg",
  "landkreis": "Landkreis Wunsiedel i.Fichtelgebirge",
  "telefon": "+49 (0)9233 404-0",
  "telefax": "+49 (0)9233 404-60",
  "email": "stadt@arzberg.de",
  "website": "http://www.arzberg.de",
  "long": "12.183333333",
  "lat": "50.066666666",
  "item": "Q266780",
  "typ": "Stadt in Deutschland"
}, {
  "name": "Asbach-Bäumenheim",
  "adresse": "Rathausplatz 1\n86663 Asbach-Bäumenheim",
  "landkreis": "Landkreis Donau-Ries",
  "telefon": "+49 (0)906 2969-0",
  "telefax": "+49 (0)906 2969-40",
  "email": "info@asbach-baeumenheim.de",
  "website": "http://www.asbach-baeumenheim.de",
  "long": "10.816666666",
  "lat": "48.683333333",
  "item": "Q507064",
  "typ": "Gemeinde in Deutschland"
}, {
  "name": "Aschheim",
  "adresse": "Saturnstraße 48\n85609 Aschheim",
  "landkreis": "Landkreis München",
  "telefon": "+49 (0)89 909978-0",
  "telefax": "+49 (0)89 909978-833",
  "email": "rathaus@aschheim.de",
  "website": "http://www.aschheim.de",
  "long": "11.717777777",
  "lat": "48.173333333",
  "item": "Q503747",
  "typ": "Gemeinde in Deutschland"
}, {
  "name": "Arnstein",
  "adresse": "Postfach 60\n97448 Arnstein",
  "landkreis": "Landkreis Main-Spessart",
  "telefon": "+49 (0)9363 801-0",
  "telefax": "+49 (0)9363 801-66",
  "email": "poststelle@arnstein.bayern.de",
  "website": "http://www.arnstein.de",
  "long": "11.46667",
  "lat": "51.68333",
  "item": "Q697577",
  "typ": "Stadt in Deutschland"
}, {
  "name": "Attenkirchen",
  "adresse": "Rathausplatz 1\n85406 Zolling",
  "landkreis": "Landkreis Freising",
  "telefon": "+49 (0)8168 90490",
  "telefax": "+49 (0)8168 96278",
  "email": "rathaus@vg-zolling.de",
  "website": "http://www.attenkirchen.de",
  "long": "11.766666666",
  "lat": "48.5",
  "item": "Q523922",
  "typ": "Gemeinde in Deutschland"
}, {
  "name": "Atting",
  "adresse": "Schloßplatz 2\n94369 Rain",
  "landkreis": "Landkreis Straubing-Bogen",
  "telefon": "+49 (0)9429 9401-0",
  "telefax": "+49 (0)9429 9401-26",
  "email": "info@vgem-rain.de",
  "website": "http://www.atting.de",
  "long": "12.483333333",
  "lat": "48.9",
  "item": "Q553729",
  "typ": "Gemeinde in Deutschland"
}, {
  "name": "Aßling",
  "adresse": "Bahnhofstr. 1\n85617 Aßling",
  "landkreis": "Landkreis Ebersberg",
  "telefon": "+49 (0)8092 8194-0",
  "telefax": "+49 (0)8092 8194-60",
  "email": "gemeinde.assling@vg-assling.de",
  "website": "http://www.assling.de",
  "long": "12.0",
  "lat": "48.0",
  "item": "Q512844",
  "typ": "Gemeinde in Deutschland"
}, {
  "name": "Au i.d.Hallertau",
  "adresse": "Untere Hauptstraße 2\n84072 Au i. d. Hallertau",
  "landkreis": "Landkreis Freising",
  "telefon": "+49 (0)8752 178-0",
  "telefax": "+49 (0)8752 178-24",
  "email": "info@markt-au.de",
  "website": "http://www.markt-au.de",
  "long": "11.741666666",
  "lat": "48.5575",
  "item": "Q523939",
  "typ": "Gemeinde in Deutschland"
}, {
  "name": "Aub",
  "adresse": "Marktplatz 1\n97239 Aub",
  "landkreis": "Landkreis Würzburg",
  "telefon": "+49 (0)9335 9710-0",
  "telefax": "+49 (0)9335 9710-44",
  "email": "info@vgem-aub.bayern.de",
  "website": "https://www.stadt-aub.de",
  "long": "10.065277777",
  "lat": "49.552777777",
  "item": "Q278783",
  "typ": "Stadt in Deutschland"
}, {
  "name": "Attenhofen",
  "adresse": "Postfach 1349\n84044 Mainburg",
  "landkreis": "Landkreis Kelheim",
  "telefon": "+49 (0)8751 8634-0",
  "telefax": "+49 (0)8751 8634-49",
  "email": "vg@vg-mainburg.de",
  "website": "http://www.attenhofen.de",
  "long": "11.85",
  "lat": "48.65",
  "item": "Q503689",
  "typ": "Gemeinde in Deutschland"
}, {
  "name": "Auerbach i.d.OPf.",
  "adresse": "Postfach 1147\n91270 Auerbach i.d.OPf.",
  "landkreis": "Landkreis Amberg-Sulzbach",
  "telefon": "+49 (0)9643 20-0",
  "telefax": "+49 (0)9643 20-35",
  "email": "stadt.auerbach@auerbach.de",
  "website": "http://www.auerbach.de",
  "long": "11.633269444",
  "lat": "49.692011111",
  "item": "Q523956",
  "typ": "Stadt in Deutschland"
}, {
  "name": "Aubstadt",
  "adresse": "Josef-Sperl-Str. 3\n97631 Bad Königshofen i.Grabfeld",
  "landkreis": "Landkreis Rhön-Grabfeld",
  "telefon": "+49 (0)9761 5996",
  "telefax": "+49 (0)9761 6189",
  "email": "info@bad-koenigshofen-vgem.de",
  "website": "http://www.aubstadt.de",
  "long": "10.433333333",
  "lat": "50.333333333",
  "item": "Q558842",
  "typ": "Gemeinde in Deutschland"
}, {
  "name": "Aufhausen",
  "adresse": "Schulstr. 26\n93104 Sünching",
  "landkreis": "Landkreis Regensburg",
  "telefon": "+49 (0)9480 9380-0",
  "telefax": "+49 (0)9480 9380-20",
  "email": "poststelle@vg-suenching.de",
  "website": "http://www.gemeinde-aufhausen.de",
  "long": "10.352222222",
  "lat": "48.856944444",
  "item": "Q628178",
  "typ": "Stadt in Deutschland"
}, {
  "name": "Auerbach",
  "adresse": "Hauptstr. 8\n94530 Auerbach",
  "landkreis": "Landkreis Deggendorf",
  "telefon": "+49 (0)9901 3033",
  "telefax": "+49 (0)9901 7220",
  "email": "gemeinde@auerbach.bayern.de",
  "website": "http://www.gemeinde-auerbach.de",
  "long": "13.100277777",
  "lat": "48.803611111",
  "item": "Q170162",
  "typ": "Gemeinde in Deutschland"
}, {
  "name": "Außernzell",
  "adresse": "Postfach 61\n94506 Schöllnach",
  "landkreis": "Landkreis Deggendorf",
  "telefon": "+49 (0)9903 343",
  "telefax": "+49 (0)9903 941195",
  "email": "poststelle@schoellnach.de",
  "website": "http://www.aussernzell.de",
  "long": "13.2",
  "lat": "48.716666666",
  "item": "Q306451",
  "typ": "Gemeinde in Deutschland"
}, {
  "name": "Augsburg",
  "adresse": "Rathausplatz 1\n86150 Augsburg",
  "landkreis": "Kreisfreie Stadt",
  "telefon": "+49 (0)821 324-0",
  "telefax": "+49 (0)821 324-2160",
  "email": "stadt@augsburg.de",
  "website": "http://www.augsburg.de",
  "long": "10.898333333",
  "lat": "48.371666666",
  "item": "Q2749",
  "typ": "Stadt in Deutschland"
}, {
  "name": "Aufseß",
  "adresse": "Marienplatz 18\n96142 Hollfeld",
  "landkreis": "Landkreis Bayreuth",
  "telefon": "+49 (0)9198 998881",
  "telefax": "+49 (0)9198 998882",
  "email": "aufsess@vg-hollfeld.bayern.de",
  "website": "http://www.aufsess.de",
  "long": "11.228333333",
  "lat": "49.883611111",
  "item": "Q507100",
  "typ": "Gemeinde in Deutschland"
}, {
  "name": "Aurach",
  "adresse": "Im Mooshof 4\n91589 Aurach",
  "landkreis": "Landkreis Ansbach",
  "telefon": "+49 (0)9804 9154-0",
  "telefax": "+49 (0)9804 9154-25",
  "email": "info@aurach.de",
  "website": "http://www.aurach.de",
  "long": "10.414722222",
  "lat": "49.245833333",
  "item": "Q503079",
  "typ": "Gemeinde in Deutschland"
}, {
  "name": "Auhausen",
  "adresse": "Postfach 1151\n86729 Oettingen i.Bay.",
  "landkreis": "Landkreis Donau-Ries",
  "telefon": "+49 (0)9832 7654",
  "telefax": "+49 (0)9832 708664",
  "email": "info@auhausen.de",
  "website": "http://www.auhausen.de/",
  "long": "10.633333333",
  "lat": "49.016666666",
  "item": "Q502820",
  "typ": "Gemeinde in Deutschland"
}, {
  "name": "Aurachtal",
  "adresse": "Lange Straße 2\n91086 Aurachtal",
  "landkreis": "Landkreis Erlangen-Höchstadt",
  "telefon": "+49 (0)9132 775-0",
  "telefax": "+49 (0)9132 775-19",
  "email": "gemeinde@aurachtal.de",
  "website": "https://www.aurachtal.de",
  "long": "10.833333333",
  "lat": "49.583333333",
  "item": "Q774406",
  "typ": "Gemeinde in Deutschland"
}, {
  "name": "Aura i.Sinngrund",
  "adresse": "Burgweg 1\n97775 Burgsinn",
  "landkreis": "Landkreis Main-Spessart",
  "telefon": "+49 (0)9356 9910-0",
  "telefax": "+49 (0)9356 9910-10",
  "email": "poststelle@vgem-burgsinn.bayern.de",
  "website": "http://www.aura-im-sinngrund.de",
  "long": "9.566666666",
  "lat": "50.166666666",
  "item": "Q513573",
  "typ": "Gemeinde in Deutschland"
}, {
  "name": "Aystetten",
  "adresse": "Bäckergasse 2\n86482 Aystetten",
  "landkreis": "Landkreis Augsburg",
  "telefon": "+49 (0)821 48018-0",
  "telefax": "+49 (0)821 48018-20",
  "email": "rathaus@aystetten.de",
  "website": "http://www.aystetten.de",
  "long": "10.774166666",
  "lat": "48.404722222",
  "item": "Q503190",
  "typ": "Gemeinde in Deutschland"
}, {
  "name": "Aying",
  "adresse": "Kirchgasse 4\n85653 Aying",
  "landkreis": "Landkreis München",
  "telefon": "+49 (0)8095 9095-0",
  "telefax": "+49 (0)8095 2353",
  "email": "gemeinde@aying.de",
  "website": "http://www.aying.de",
  "long": "11.783333333",
  "lat": "47.966666666",
  "item": "Q251008",
  "typ": "Gemeinde in Deutschland"
}, {
  "name": "Aura a.d.Saale",
  "adresse": "Zeilweg 2\n97717 Euerdorf",
  "landkreis": "Landkreis Bad Kissingen",
  "telefon": "+49 (0)9704 222",
  "telefax": "+49 (0)9704 9131-50",
  "email": "poststelle@vg-euerdorf.de",
  "website": "http://www.vg-euerdorf.de/gemeinde-aura/index.html",
  "long": "10.00738",
  "lat": "50.164483",
  "item": "Q505352",
  "typ": "Gemeinde in Deutschland"
}, {
  "name": "Bachhagel",
  "adresse": "Ringstraße 35\n89428 Syrgenstein",
  "landkreis": "Landkreis Dillingen a.d.Donau",
  "telefon": "+49 (0)9077 709-0",
  "telefax": "+49 (0)9077 709-50",
  "email": "verwaltung@syrgenstein.de",
  "website": "http://www.bachhagel.de",
  "long": "10.316666666",
  "lat": "48.633333333",
  "item": "Q503382",
  "typ": "Gemeinde in Deutschland"
}, {
  "name": "Baar-Ebenhausen",
  "adresse": "Münchener Str. 55\n85107 Baar-Ebenhausen",
  "landkreis": "Landkreis Pfaffenhofen a.d.Ilm",
  "telefon": "+49 (0)8453 3205-0",
  "telefax": "+49 (0)8453 3205-15",
  "email": "gemeinde@baar-ebenhausen.de",
  "website": "http://www.baar-ebenhausen.de",
  "long": "11.433333333",
  "lat": "48.666666666",
  "item": "Q490463",
  "typ": "Gemeinde in Deutschland"
}, {
  "name": "Baar (Schwaben)",
  "adresse": "Postfach 27\n86552 Pöttmes",
  "landkreis": "Landkreis Aichach-Friedberg",
  "telefon": "+49 (0)8253 9998-0",
  "telefax": "+49 (0)8253 9998-50",
  "email": "poststelle@vg-poettmes.de",
  "website": "http://www.baar-schwaben.de",
  "long": "10.966666666",
  "lat": "48.566666666",
  "item": "Q256051",
  "typ": "Gemeinde in Deutschland"
}, {
  "name": "Bad Abbach",
  "adresse": "Postfach 1253\n93075 Bad Abbach",
  "landkreis": "Landkreis Kelheim",
  "telefon": "+49 (0)9405 9590-0",
  "telefax": "+49 (0)9405 9590-50",
  "email": "markt@bad-abbach.de",
  "website": "http://www.bad-abbach.de",
  "long": "12.05",
  "lat": "48.933333333",
  "item": "Q177280",
  "typ": "Gemeinde in Deutschland"
}, {
  "name": "Bad Alexandersbad",
  "adresse": "Hauptstr. 6\n95709 Tröstau",
  "landkreis": "Landkreis Wunsiedel i.Fichtelgebirge",
  "telefon": "+49 (0)9232 9925-0",
  "telefax": "+49 (0)9232 9925-25",
  "email": "info@badalexandersbad.de",
  "website": "http://www.badalexandersbad.de",
  "long": "12.016666666",
  "lat": "50.016666666",
  "item": "Q513780",
  "typ": "Gemeinde in Deutschland"
}, {
  "name": "Bächingen a.d.Brenz",
  "adresse": "Postfach 28\n89421 Gundelfingen a.d.Donau",
  "landkreis": "Landkreis Dillingen a.d.Donau",
  "telefon": "+49 (0)7325 919-280",
  "telefax": "+49 (0)7325 919-281",
  "email": "vgem@gundelfingen-donau.de",
  "website": "http://www.baechingen.de",
  "long": "10.31281",
  "lat": "48.54627",
  "item": "Q512917",
  "typ": "Gemeinde in Deutschland"
}, {
  "name": "Bad Aibling",
  "adresse": "Postfach 1408\n83038 Bad Aibling",
  "landkreis": "Landkreis Rosenheim",
  "telefon": "+49 (0)8061 4901-0",
  "telefax": "+49 (0)8061 4901-135",
  "email": "rathaus@bad-aibling.de",
  "website": "https://www.bad-aibling.de",
  "long": "12.009722222",
  "lat": "47.865",
  "item": "Q5758",
  "typ": "Stadt in Deutschland"
}, {
  "name": "Babensham",
  "adresse": "Raiffeisenstr. 3\n83547 Babensham",
  "landkreis": "Landkreis Rosenheim",
  "telefon": "+49 (0)8071 9220-0",
  "telefax": "+49 (0)8071 9220-29",
  "email": "info@babensham.de",
  "website": "http://www.babensham.de",
  "long": "12.266666666",
  "lat": "48.083333333",
  "item": "Q252437",
  "typ": "Gemeinde in Deutschland"
}, {
  "name": "Babenhausen",
  "adresse": "Postfach 1146\n87725 Babenhausen",
  "landkreis": "Landkreis Unterallgäu",
  "telefon": "+49 (0)8333 9400-0",
  "telefax": "+49 (0)8333 9400-94",
  "email": "poststelle@markt-babenhausen.de",
  "website": "http://www.markt-babenhausen.de",
  "long": "8.953263888",
  "lat": "49.962361111",
  "item": "Q516552",
  "typ": "Stadt in Deutschland"
}, {
  "name": "Bach a.d.Donau",
  "adresse": "Wörther Straße 5\n93093 Donaustauf",
  "landkreis": "Landkreis Regensburg",
  "telefon": "+49 (0)9403 9502-0",
  "telefax": "+49 (0)9403 9502-80",
  "email": "poststelle@vg-donaustauf.de",
  "website": "http://www.bach-donau.de",
  "long": "12.303888888",
  "lat": "49.020833333",
  "item": "Q488974",
  "typ": "Gemeinde in Deutschland"
}, {
  "name": "Bad Bayersoien",
  "adresse": "Kohlgruber Str. 2\n82442 Saulgrub",
  "landkreis": "Landkreis Garmisch-Partenkirchen",
  "telefon": "+49 (0)8845 7030610",
  "telefax": "+49 (0)8845 7030650",
  "email": "verwaltung@bad-bayersoien.net",
  "website": "https://www.gemeinde-bad-bayersoien.de/",
  "long": "11.0",
  "lat": "47.683333333",
  "item": "Q505817",
  "typ": "Gemeinde in Deutschland"
}, {
  "name": "Bad Berneck i.Fichtelgebirge",
  "adresse": "Bahnhofstr. 77\n95460 Bad Berneck i.Fichtelgebirge",
  "landkreis": "Landkreis Bayreuth",
  "telefon": "+49 (0)9273 89-0",
  "telefax": "+49 (0)9273 89-36",
  "email": "poststelle@badberneck.bayern.de",
  "website": "http://www.bad-berneck.com",
  "long": "11.672381",
  "lat": "50.045639",
  "item": "Q504528",
  "typ": "Stadt in Deutschland"
}, {
  "name": "Bad Bocklet",
  "adresse": "Postfach 61\n97706 Bad Bocklet",
  "landkreis": "Landkreis Bad Kissingen",
  "telefon": "+49 (0)9708 9122-0",
  "telefax": "+49 (0)9708 9122-33",
  "email": "poststelle@m-bad-bocklet.bayern.de",
  "website": "http://www.badbocklet.de",
  "long": "10.083333333",
  "lat": "50.266666666",
  "item": "Q502893",
  "typ": "Gemeinde in Deutschland"
}, {
  "name": "Bad Birnbach",
  "adresse": "Postfach 110\n84361 Bad Birnbach",
  "landkreis": "Landkreis Rottal-Inn",
  "telefon": "+49 (0)8563 9630-0",
  "telefax": "+49 (0)8563 9630-50",
  "email": "poststelle@badbirnbach.net",
  "website": "http://www.badbirnbach.de",
  "long": "13.083333333",
  "lat": "48.45",
  "item": "Q589058",
  "typ": "Gemeinde in Deutschland"
}, {
  "name": "Bad Griesbach i.Rottal",
  "adresse": "Schloßberg 18\n94086 Bad Griesbach i.Rottal",
  "landkreis": "Landkreis Passau",
  "telefon": "+49 (0)8532 792-0",
  "telefax": "+49 (0)8532 792-90",
  "email": "poststelle@stadtbadgriesbach.de",
  "website": "http://www.badgriesbach.de",
  "long": "13.2",
  "lat": "48.45",
  "item": "Q253284",
  "typ": "Stadt in Deutschland"
}, {
  "name": "Bad Endorf",
  "adresse": "Bahnhofstraße 6\n83089 Bad Endorf",
  "landkreis": "Landkreis Rosenheim",
  "telefon": "+49 (0)8053 3008-0",
  "telefax": "+49 (0)8053 3008-30",
  "email": "marktverwaltung@bad-endorf.de",
  "website": "http://www.bad-endorf.de",
  "long": "12.3",
  "lat": "47.9",
  "item": "Q251462",
  "typ": "Gemeinde in Deutschland"
}, {
  "name": "Bad Feilnbach",
  "adresse": "Rathausplatz 1\n83075 Bad Feilnbach",
  "landkreis": "Landkreis Rosenheim",
  "telefon": "+49 (0)8066 887-0",
  "telefax": "+49 (0)8066 887-50",
  "email": "poststelle@bad-feilnbach.de",
  "website": "http://www.bad-feilnbach.de",
  "long": "12.016666666",
  "lat": "47.783333333",
  "item": "Q522430",
  "typ": "Gemeinde in Deutschland"
}, {
  "name": "Bad Grönenbach",
  "adresse": "Marktplatz 1\n87730 Bad Grönenbach",
  "landkreis": "Landkreis Unterallgäu",
  "telefon": "+49 (0)8334 605-0",
  "telefax": "+49 (0)8334 605-27",
  "email": "rathaus@bad-groenenbach.de",
  "website": "http://www.bad-groenenbach.de",
  "long": "10.2211",
  "lat": "47.8755",
  "item": "Q550231",
  "typ": "Gemeinde in Deutschland"
}, {
  "name": "Bad Brückenau",
  "adresse": "Marktplatz 2\n97769 Bad Brückenau",
  "landkreis": "Landkreis Bad Kissingen",
  "telefon": "+49 (0)9741 804-0",
  "telefax": "+49 (0)9741 804-17",
  "email": "poststelle@st-bad-brueckenau.bayern.de",
  "website": "http://www.bad-brueckenau.de",
  "long": "9.787111111",
  "lat": "50.309111111",
  "item": "Q504513",
  "typ": "Stadt in Deutschland"
}, {
  "name": "Bad Füssing",
  "adresse": "Postfach 1105\n94067 Bad Füssing",
  "landkreis": "Landkreis Passau",
  "telefon": "+49 (0)8531 975-450",
  "telefax": "+49 (0)8531 975-449",
  "email": "info@badfuessing.de",
  "website": "https://www.gde-badfuessing.de",
  "long": "13.313611111",
  "lat": "48.350833333",
  "item": "Q506896",
  "typ": "Gemeinde in Deutschland"
}, {
  "name": "Bad Reichenhall",
  "adresse": "Postfach 1164\n83421 Bad Reichenhall",
  "landkreis": "Landkreis Berchtesgadener Land",
  "telefon": "+49 (0)8651 775-0",
  "telefax": "+49 (0)8651 775-200",
  "email": "info@stadt-bad-reichenhall.de",
  "website": "http://www.stadt-bad-reichenhall.de",
  "long": "12.876944444",
  "lat": "47.724722222",
  "item": "Q487971",
  "typ": "Stadt in Deutschland"
}, {
  "name": "Bad Neustadt a.d.Saale",
  "adresse": "Postfach 1640\n97615 Bad Neustadt a.d.Saale",
  "landkreis": "Landkreis Rhön-Grabfeld",
  "telefon": "+49 (0)9771 9106-0",
  "telefax": "+49 (0)9771 9106-109",
  "email": "post@bad-neustadt.de",
  "website": "http://www.bad-neustadt.de",
  "long": "10.216111111",
  "lat": "50.321944444",
  "item": "Q311098",
  "typ": "Stadt in Deutschland"
}, {
  "name": "Bad Kissingen",
  "adresse": "Postfach 2260\n97688 Bad Kissingen",
  "landkreis": "Landkreis Bad Kissingen",
  "telefon": "+49 (0)971 807-0",
  "telefax": "+49 (0)971 807-4444",
  "email": "poststelle@gkst-badkissingen.bayern.de",
  "website": "http://www.badkissingen.de/",
  "long": "10.066666666",
  "lat": "50.2",
  "item": "Q488346",
  "typ": "Stadt in Deutschland"
}, {
  "name": "Bad Heilbrunn",
  "adresse": "Postfach 88\n83668 Bad Heilbrunn",
  "landkreis": "Landkreis Bad Tölz-Wolfratshausen",
  "telefon": "+49 (0)8046 1889-0",
  "telefax": "+49 (0)8046 1889-29",
  "email": "poststelle@bad-heilbrunn.de",
  "website": "http://www.bad-heilbrunn.de",
  "long": "11.45",
  "lat": "47.75",
  "item": "Q256278",
  "typ": "Gemeinde in Deutschland"
}, {
  "name": "Bad Königshofen i.Grabfeld",
  "adresse": "Marktplatz 2\n97631 Bad Königshofen i.Grabfeld",
  "landkreis": "Landkreis Rhön-Grabfeld",
  "telefon": "+49 (0)9761 409-0",
  "telefax": "+49 (0)9761 409-999",
  "email": "info@bad-koenigshofen.de",
  "website": "http://www.bad-koenigshofen.de",
  "long": "10.466666666",
  "lat": "50.299166666",
  "item": "Q571926",
  "typ": "Stadt in Deutschland"
}, {
  "name": "Bad Kohlgrub",
  "adresse": "Hauptstr. 29\n82433 Bad Kohlgrub",
  "landkreis": "Landkreis Garmisch-Partenkirchen",
  "telefon": "+49 (0)8845 7490-0",
  "telefax": "+49 (0)8845 7490-24",
  "email": "gemeinde@bad-kohlgrub.de",
  "website": "http://www.gemeinde-bad-kohlgrub.de",
  "long": "11.05",
  "lat": "47.666666666",
  "item": "Q379050",
  "typ": "Gemeinde in Deutschland"
}, {
  "name": "Bad Rodach",
  "adresse": "Markt 1\n96476 Bad Rodach",
  "landkreis": "Landkreis Coburg",
  "telefon": "+49 (0)9564 9222-0",
  "telefax": "+49 (0)9564 9222-25",
  "email": "info@bad-rodach.de",
  "website": "http://www.badrodach.de",
  "long": "10.783333333",
  "lat": "50.333333333",
  "item": "Q491118",
  "typ": "Stadt in Deutschland"
}, {
  "name": "Bad Hindelang",
  "adresse": "Postfach 1142\n87539 Bad Hindelang",
  "landkreis": "Landkreis Oberallgäu",
  "telefon": "+49 (0)8324 892-200",
  "telefax": "+49 (0)8324 892-1200",
  "email": "rathaus@badhindelang.de",
  "website": "http://marktgemeinde.badhindelang.de/",
  "long": "10.369444444",
  "lat": "47.505277777",
  "item": "Q522573",
  "typ": "Gemeinde in Deutschland"
}, {
  "name": "Bad Kötzting",
  "adresse": "Postfach 180\n93438 Bad Kötzting",
  "landkreis": "Landkreis Cham",
  "telefon": "+49 (0)9941 602-0",
  "telefax": "+49 (0)9941 602-130",
  "email": "poststelle@bad-koetzting.de",
  "website": "http://www.bad-koetzting.de",
  "long": "12.855",
  "lat": "49.176944444",
  "item": "Q623464",
  "typ": "Stadt in Deutschland"
}, {
  "name": "Bad Neualbenreuth",
  "adresse": "Marktplatz 5\n95698 Bad Neualbenreuth",
  "landkreis": "Landkreis Tirschenreuth",
  "telefon": "+49 (0)9638 9021000",
  "telefax": "+49 (0)9638 715",
  "email": "poststelle@neualbenreuth.de",
  "website": "http://www.neualbenreuth.de",
  "long": "12.433333333",
  "lat": "49.966666666",
  "item": "Q553761",
  "typ": "Gemeinde in Deutschland"
}, {
  "name": "Bad Staffelstein",
  "adresse": "Postfach 1208\n96226 Bad Staffelstein",
  "landkreis": "Landkreis Lichtenfels",
  "telefon": "+49 (0)9573 41-0",
  "telefax": "+49 (0)9573 41-70",
  "email": "info@bad-staffelstein.de",
  "website": "http://www.bad-staffelstein.de",
  "long": "10.9962",
  "lat": "50.099",
  "item": "Q504634",
  "typ": "Stadt in Deutschland"
}, {
  "name": "Baierbrunn",
  "adresse": "Bahnhofstr. 2\n82065 Baierbrunn",
  "landkreis": "Landkreis München",
  "telefon": "+49 (0)89 744150-0",
  "telefax": "+49 (0)89 744150-10",
  "email": "gemeinde@baierbrunn.de",
  "website": "http://www.baierbrunn.de",
  "long": "11.483333333",
  "lat": "48.016666666",
  "item": "Q503705",
  "typ": "Gemeinde in Deutschland"
}, {
  "name": "Bad Steben",
  "adresse": "Hauptstr. 2\n95138 Bad Steben",
  "landkreis": "Landkreis Hof",
  "telefon": "+49 (0)9288 74-0",
  "telefax": "+49 (0)9288 74-43",
  "email": "rathaus@badsteben.de",
  "website": "https://www.markt-badsteben.de/",
  "long": "11.65",
  "lat": "50.366666666",
  "item": "Q522305",
  "typ": "Gemeinde in Deutschland"
}, {
  "name": "Baierbach",
  "adresse": "Rathausplatz 1\n84169 Altfraunhofen",
  "landkreis": "Landkreis Landshut",
  "telefon": "+49 (0)8705 928-0",
  "telefax": "+49 (0)8705 928-99",
  "email": "poststelle@vg-altfraunhofen.de",
  "website": "http://www.baierbach.de",
  "long": "12.2",
  "lat": "48.416666666",
  "item": "Q260736",
  "typ": "Gemeinde in Deutschland"
}, {
  "name": "Baiersdorf",
  "adresse": "Postfach 26\n91081 Baiersdorf",
  "landkreis": "Landkreis Erlangen-Höchstadt",
  "telefon": "+49 (0)9133 7790-0",
  "telefax": "+49 (0)9133 7790-90",
  "email": "rathaus@baiersdorf.de",
  "website": "https://www.baiersdorf.de",
  "long": "11.032777777",
  "lat": "49.656388888",
  "item": "Q163423",
  "typ": "Stadt in Deutschland"
}, {
  "name": "Bad Wörishofen",
  "adresse": "Postfach 1663\n86819 Bad Wörishofen",
  "landkreis": "Landkreis Unterallgäu",
  "telefon": "+49 (0)8247 9690-0",
  "telefax": "+49 (0)8247 9690-89",
  "email": "poststelle@bad-woerishofen.de",
  "website": "https://www.bad-woerishofen.de",
  "long": "10.596944444",
  "lat": "48.005833333",
  "item": "Q504579",
  "typ": "Stadt in Deutschland"
}, {
  "name": "Bad Wiessee",
  "adresse": "Postfach 109\n83704 Bad Wiessee",
  "landkreis": "Landkreis Miesbach",
  "telefon": "+49 (0)8022 8602-0",
  "telefax": "+49 (0)8022 8602-50",
  "email": "gemeinde@bad-wiessee.de",
  "website": "https://gemeinde.bad-wiessee.de",
  "long": "11.716666666",
  "lat": "47.716666666",
  "item": "Q502921",
  "typ": "Gemeinde in Deutschland"
}, {
  "name": "Bad Tölz",
  "adresse": "Postfach 1140\n83631 Bad Tölz",
  "landkreis": "Landkreis Bad Tölz-Wolfratshausen",
  "telefon": "+49 (0)8041 504-0",
  "telefax": "+49 (0)8041 504999",
  "email": "stadtverwaltung@bad-toelz.de",
  "website": "http://www.bad-toelz.de",
  "long": "11.556666666",
  "lat": "47.760277777",
  "item": "Q280491",
  "typ": "Stadt in Deutschland"
}, {
  "name": "Baiern",
  "adresse": "Postfach 1120\n85623 Glonn",
  "landkreis": "Landkreis Ebersberg",
  "telefon": "+49 (0)8093 5263",
  "telefax": "+49 (0)8093 2438",
  "email": "info@baiern.eu",
  "website": "http://www.baiern.eu",
  "long": "11.9",
  "lat": "47.95",
  "item": "Q263850",
  "typ": "Gemeinde in Deutschland"
}, {
  "name": "Bad Windsheim",
  "adresse": "Postfach 260\n91425 Bad Windsheim",
  "landkreis": "Landkreis Neustadt a.d.Aisch-Bad Windsheim",
  "telefon": "+49 (0)9841 6689-0",
  "telefax": "+49 (0)9841 6689-50",
  "email": "info@bad-windsheim.de",
  "website": "https://www.bad-windsheim.de",
  "long": "10.416666666",
  "lat": "49.5",
  "item": "Q132278",
  "typ": "Stadt in Deutschland"
}, {
  "name": "Bärnau",
  "adresse": "Marktplatz 1\n95671 Bärnau",
  "landkreis": "Landkreis Tirschenreuth",
  "telefon": "+49 (0)9635 9203-0",
  "telefax": "+49 (0)9635 9203-33",
  "email": "poststelle@baernau.de",
  "website": "http://www.baernau.de",
  "long": "12.436111111",
  "lat": "49.810277777",
  "item": "Q112615",
  "typ": "Stadt in Deutschland"
}, {
  "name": "Balzhausen",
  "adresse": "Edmund-Zimmermann-Straße 3\n86470 Thannhausen",
  "landkreis": "Landkreis Günzburg",
  "telefon": "+49 (0)8281 901-0",
  "telefax": "+49 (0)8281 901-20",
  "email": "gemeinde@balzhausen.de",
  "website": "https://www.balzhausen.de",
  "long": "10.5",
  "lat": "48.233333333",
  "item": "Q503768",
  "typ": "Gemeinde in Deutschland"
}, {
  "name": "Barbing",
  "adresse": "Kirchstr. 1\n93092 Barbing",
  "landkreis": "Landkreis Regensburg",
  "telefon": "+49 (0)9401 9229-0",
  "telefax": "+49 (0)9401 80395",
  "email": "gemeinde@barbing.de",
  "website": "http://www.barbing.de",
  "long": "12.199166666",
  "lat": "49.003333333",
  "item": "Q489142",
  "typ": "Gemeinde in Deutschland"
}, {
  "name": "Baunach",
  "adresse": "Bamberger Str. 1\n96148 Baunach",
  "landkreis": "Landkreis Bamberg",
  "telefon": "+49 (0)9544 299-0",
  "telefax": "+49 (0)9544 299-20",
  "email": "poststelle@vg-baunach.de",
  "website": "http://www.stadt-baunach.de",
  "long": "10.8485",
  "lat": "49.9885",
  "item": "Q504808",
  "typ": "Stadt in Deutschland"
}, {
  "name": "Baisweil",
  "adresse": "Römerstr. 12\n87653 Eggenthal",
  "landkreis": "Landkreis Ostallgäu",
  "telefon": "+49 (0)8340 221",
  "telefax": "+49 (0)8340 9789877",
  "email": "gemeinde@baisweil.de",
  "website": "https://www.baisweil.de",
  "long": "10.55",
  "lat": "47.95",
  "item": "Q507804",
  "typ": "Gemeinde in Deutschland"
}, {
  "name": "Bastheim",
  "adresse": "Obergasse 20\n97654 Bastheim",
  "landkreis": "Landkreis Rhön-Grabfeld",
  "telefon": "+49 (0)9773 9166-0",
  "telefax": "+49 (0)9773 9166-29",
  "email": "post@bastheim.de",
  "website": "http://www.bastheim.de",
  "long": "10.2",
  "lat": "50.4",
  "item": "Q569552",
  "typ": "Gemeinde in Deutschland"
}, {
  "name": "Bayerbach",
  "adresse": "Postfach 110\n84361 Bad Birnbach",
  "landkreis": "Landkreis Rottal-Inn",
  "telefon": "+49 (0)8563 9630-0",
  "telefax": "+49 (0)8563 9630-50",
  "email": "poststelle@badbirnbach.net",
  "website": "http://www.bayerbach.de",
  "long": "13.15",
  "lat": "48.416666666",
  "item": "Q585573",
  "typ": "Gemeinde in Deutschland"
}, {
  "name": "Balderschwang",
  "adresse": "Dorf 11\n87538 Balderschwang",
  "landkreis": "Landkreis Oberallgäu",
  "telefon": "+49 (0)8328 1023",
  "telefax": "+49 (0)8328 265",
  "email": "gemeinde@balderschwang.de",
  "website": "https://www.hoernergruppe.de/infos/gemeindedaten/balderschwang/",
  "long": "10.1",
  "lat": "47.466666666",
  "item": "Q524638",
  "typ": "Gemeinde in Deutschland"
}, {
  "name": "Bamberg",
  "adresse": "Postfach 110323\n96031 Bamberg",
  "landkreis": "Kreisfreie Stadt",
  "telefon": "+49 (0)951 87-0",
  "telefax": "+49 (0)951 87-1964",
  "email": "poststelle@stadt.bamberg.de",
  "website": "http://www.bamberg.de",
  "long": "10.891666666",
  "lat": "49.891666666",
  "item": "Q3936",
  "typ": "Stadt in Deutschland"
}, {
  "name": "Baudenbach",
  "adresse": "Rathausplatz 1\n91456 Diespeck",
  "landkreis": "Landkreis Neustadt a.d.Aisch-Bad Windsheim",
  "telefon": "+49 (0)9164 426",
  "telefax": "+49 (0)9164 1546",
  "email": "gemeinde@baudenbach.de",
  "website": "http://www.baudenbach.de",
  "long": "10.516666666",
  "lat": "49.616666666",
  "item": "Q505345",
  "typ": "Gemeinde in Deutschland"
}, {
  "name": "Bellenberg",
  "adresse": "Memminger Straße 7\n89287 Bellenberg",
  "landkreis": "Landkreis Neu-Ulm",
  "telefon": "+49 (0)7306 784-0",
  "telefax": "+49 (0)7306 784-15",
  "email": "poststelle@gemeinde-bellenberg.de",
  "website": "http://www.gemeinde-bellenberg.de",
  "long": "10.083333333",
  "lat": "48.25",
  "item": "Q517456",
  "typ": "Gemeinde in Deutschland"
}, {
  "name": "Bayerbach b.Ergoldsbach",
  "adresse": "Postfach 1160\n84057 Ergoldsbach",
  "landkreis": "Landkreis Landshut",
  "telefon": "+49 (0)8771 30-0",
  "telefax": "+49 (0)8771 30-41",
  "email": "poststelle@vgem-ergoldsbach.de",
  "website": "http://www.gemeinde-bayerbach.de",
  "long": "12.3",
  "lat": "48.7",
  "item": "Q253521",
  "typ": "Gemeinde in Deutschland"
}, {
  "name": "Bayrischzell",
  "adresse": "Kirchplatz 2\n83735 Bayrischzell",
  "landkreis": "Landkreis Miesbach",
  "telefon": "+49 (0)8023 9076-0",
  "telefax": "+49 (0)8023 1034",
  "email": "verwaltung@bayrischzell.de",
  "website": "https://gemeinde.bayrischzell.de/",
  "long": "12.016666666",
  "lat": "47.666666666",
  "item": "Q506244",
  "typ": "Gemeinde in Deutschland"
}, {
  "name": "Bayerisch Eisenstein",
  "adresse": "Anton-Pech-Weg 2\n94252 Bayerisch Eisenstein",
  "landkreis": "Landkreis Regen",
  "telefon": "+49 (0)9925 9403-0",
  "telefax": "+49 (0)9925 9403-99",
  "email": "poststelle@bayerisch-eisenstein.landkreis-regen.de",
  "website": "http://www.bayerisch-eisenstein.de",
  "long": "13.2",
  "lat": "49.12",
  "item": "Q491435",
  "typ": "Gemeinde in Deutschland"
}, {
  "name": "Bechtsrieth",
  "adresse": "Hauptstr. 12\n92718 Schirmitz",
  "landkreis": "Landkreis Neustadt a.d.Waldnaab",
  "telefon": "+49 (0)961 418000",
  "telefax": "+49 (0)961 48116-66",
  "email": "gemeinde-bechtsrieth@gmx.de",
  "website": "http://www.bechtsrieth.de",
  "long": "12.213055555",
  "lat": "49.646666666",
  "item": "Q503999",
  "typ": "Gemeinde in Deutschland"
}, {
  "name": "Beilngries",
  "adresse": "Hauptstraße 24\n92339 Beilngries",
  "landkreis": "Landkreis Eichstätt",
  "telefon": "+49 (0)8461 707-0",
  "telefax": "+49 (0)8461 707-35",
  "email": "poststelle@beilngries.bayern.de",
  "website": "http://www.beilngries.de",
  "long": "11.466666666",
  "lat": "49.033333333",
  "item": "Q573230",
  "typ": "Stadt in Deutschland"
}, {
  "name": "Bechhofen",
  "adresse": "Postfach 1108\n91568 Bechhofen",
  "landkreis": "Landkreis Ansbach",
  "telefon": "+49 (0)9822 606-0",
  "telefax": "+49 (0)9822 606-50",
  "email": "rathaus@bechhofen.com",
  "website": "http://www.markt-bechhofen.de",
  "long": "7.404166666",
  "lat": "49.351388888",
  "item": "Q654568",
  "typ": "Gemeinde in Deutschland"
}, {
  "name": "Bayerisch Gmain",
  "adresse": "Großgmainer Str. 12\n83457 Bayerisch Gmain",
  "landkreis": "Landkreis Berchtesgadener Land",
  "telefon": "+49 (0)8651 9784-0",
  "telefax": "+49 (0)8651 9784-30",
  "email": "gemeinde@bayerisch.gmain.de",
  "website": "http://www.bayerisch.gmain.de",
  "long": "12.896666666",
  "lat": "47.719444444",
  "item": "Q263586",
  "typ": "Gemeinde in Deutschland"
}, {
  "name": "Benediktbeuern",
  "adresse": "Prälatenstrasse 7\n83671 Benediktbeuern",
  "landkreis": "Landkreis Bad Tölz-Wolfratshausen",
  "telefon": "+49 (0)8857 6913-0",
  "telefax": "+49 (0)8857 6913-13",
  "email": "info@benediktbeuern.de",
  "website": "http://www.benediktbeuern.de",
  "long": "11.411666666",
  "lat": "47.706666666",
  "item": "Q503628",
  "typ": "Gemeinde in Deutschland"
}, {
  "name": "Bayreuth",
  "adresse": "Postfach 101052\n95410 Bayreuth",
  "landkreis": "Kreisfreie Stadt",
  "telefon": "+49 (0)921 25-0",
  "telefax": "+49 (0)921 25-1305",
  "email": "poststelle@stadt.bayreuth.de",
  "website": "http://www.bayreuth.de",
  "long": "11.578333333",
  "lat": "49.948055555",
  "item": "Q3923",
  "typ": "Stadt in Deutschland"
}, {
  "name": "Beratzhausen",
  "adresse": "Marktstr. 33\n93176 Beratzhausen",
  "landkreis": "Landkreis Regensburg",
  "telefon": "+49 (0)9493 9400-0",
  "telefax": "+49 (0)9493 9400-22",
  "email": "info@markt-beratzhausen.de",
  "website": "http://www.beratzhausen.de",
  "long": "11.810277777",
  "lat": "49.095277777",
  "item": "Q429492",
  "typ": "Gemeinde in Deutschland"
}, {
  "name": "Berching",
  "adresse": "Postfach 55\n92332 Berching",
  "landkreis": "Landkreis Neumarkt i.d.OPf.",
  "telefon": "+49 (0)8462 205-0",
  "telefax": "+49 (0)8462 205-90",
  "email": "hauptamt@berching.de",
  "website": "http://www.berching.eu",
  "long": "11.439444444",
  "lat": "49.106388888",
  "item": "Q248062",
  "typ": "Stadt in Deutschland"
}, {
  "name": "Berg im Gau",
  "adresse": "Herzoganger 1\n86529 Schrobenhausen",
  "landkreis": "Landkreis Neuburg-Schrobenhausen",
  "telefon": "+49 (0)8252 8951-0",
  "telefax": "+49 (0)8252 8951-50",
  "email": "poststelle@vgem-sob.de",
  "website": "http://www.berg-im-gau.de",
  "long": "11.25",
  "lat": "48.633333333",
  "item": "Q504700",
  "typ": "Gemeinde in Deutschland"
}, {
  "name": "Berg b.Neumarkt i.d.OPf.",
  "adresse": "Herrnstr. 1\n92348 Berg b.Neumarkt i.d.OPf.",
  "landkreis": "Landkreis Neumarkt i.d.OPf.",
  "telefon": "+49 (0)9189 4411-0",
  "telefax": "+49 (0)9189 4411-44",
  "email": "gemeinde@berg-opf.de",
  "website": "http://www.berg-opf.de",
  "long": "11.433333",
  "lat": "49.316667",
  "item": "Q506943",
  "typ": "Gemeinde in Deutschland"
}, {
  "name": "Bergen",
  "adresse": "Schmiedgasse 1\n91790 Nennslingen",
  "landkreis": "Landkreis Weißenburg-Gunzenhausen",
  "telefon": "+49 (0)9147 9411-0",
  "telefax": "+49 (0)9147 9411-30",
  "email": "info@nennslingen.de",
  "website": "http://www.bergen-mittelfranken.de",
  "long": "12.279166666",
  "lat": "50.476388888",
  "item": "Q46506",
  "typ": "Gemeinde in Deutschland"
}, {
  "name": "Berchtesgaden",
  "adresse": "Rathausplatz 1\n83471 Berchtesgaden",
  "landkreis": "Landkreis Berchtesgadener Land",
  "telefon": "+49 (0)8652 6006-0",
  "telefax": "+49 (0)8652 64515",
  "email": "info@gemeinde.berchtesgaden.de",
  "website": "http://www.gemeinde.berchtesgaden.de",
  "long": "13.004166666",
  "lat": "47.631388888",
  "item": "Q278221",
  "typ": "Gemeinde in Deutschland"
}, {
  "name": "Benningen",
  "adresse": "Postfach 1160\n87766 Memmingerberg",
  "landkreis": "Landkreis Unterallgäu",
  "telefon": "+49 (0)8331 2538",
  "telefax": "+49 (0)8331 48462",
  "email": "poststelle@benningen-allgaeu.de",
  "website": "http://www.benningen-allgaeu.de",
  "long": "10.2095",
  "lat": "47.9671",
  "item": "Q547187",
  "typ": "Gemeinde in Deutschland"
}, {
  "name": "Bergen",
  "adresse": "Hochfellnstr. 14\n83346 Bergen",
  "landkreis": "Landkreis Traunstein",
  "telefon": "+49 (0)8662 4885-0",
  "telefax": "+49 (0)8662 4885-11",
  "email": "info@bergen-chiemgau.de",
  "website": "http://www.bergen-chiemgau.de",
  "long": "12.279166666",
  "lat": "50.476388888",
  "item": "Q46506",
  "typ": "Gemeinde in Deutschland"
}, {
  "name": "Berg",
  "adresse": "Postfach 10\n82328 Berg",
  "landkreis": "Landkreis Starnberg",
  "telefon": "+49 (0)8151 508-0",
  "telefax": "+49 (0)8151 508-88",
  "email": "info@gemeinde-berg.de",
  "website": "http://www.gemeinde-berg.de",
  "long": "9.600277777",
  "lat": "47.811944444",
  "item": "Q550669",
  "typ": "Gemeinde in Deutschland"
}, {
  "name": "Berg",
  "adresse": "Kirchplatz 2\n95180 Berg",
  "landkreis": "Landkreis Hof",
  "telefon": "+49 (0)9293 943-0",
  "telefax": "+49 (0)9293 943-22",
  "email": "gemeinde@berg-ofr.de",
  "website": "http://www.berg-ofr.de",
  "long": "9.600277777",
  "lat": "47.811944444",
  "item": "Q550669",
  "typ": "Gemeinde in Deutschland"
}, {
  "name": "Bernried",
  "adresse": "Birket 34\n94505 Bernried",
  "landkreis": "Landkreis Deggendorf",
  "telefon": "+49 (0)9905 7400-0",
  "telefax": "+49 (0)9905 7400-22",
  "email": "poststelle@bernried-niederbayern.de",
  "website": "http://www.bernried-niederbayern.de",
  "long": "12.866666666",
  "lat": "48.916666666",
  "item": "Q260902",
  "typ": "Gemeinde in Deutschland"
}, {
  "name": "Bernhardswald",
  "adresse": "Rathausplatz 1\n93170 Bernhardswald",
  "landkreis": "Landkreis Regensburg",
  "telefon": "+49 (0)9407 9406-0",
  "telefax": "+49 (0)9407 9406-28",
  "email": "gemeinde.bernhardswald@realrgb.de",
  "website": "http://www.bernhardswald.de",
  "long": "12.244444444",
  "lat": "49.090555555",
  "item": "Q489134",
  "typ": "Gemeinde in Deutschland"
}, {
  "name": "Bernau a.Chiemsee",
  "adresse": "Rathausplatz 1\n83233 Bernau a.Chiemsee",
  "landkreis": "Landkreis Rosenheim",
  "telefon": "+49 (0)8051 8008-0",
  "telefax": "+49 (0)8051 8008-19",
  "email": "rathaus@bernau-am-chiemsee.de",
  "website": "https://www.gemeinde-bernau.de",
  "long": "12.366666666",
  "lat": "47.816666666",
  "item": "Q126960",
  "typ": "Gemeinde in Deutschland"
}, {
  "name": "Bergrheinfeld",
  "adresse": "Postfach 27\n97493 Bergrheinfeld",
  "landkreis": "Landkreis Schweinfurt",
  "telefon": "+49 (0)9721 9700-0",
  "telefax": "+49 (0)9721 9700-30",
  "email": "gemeindeverwaltung@bergrheinfeld.de",
  "website": "https://www.bergrheinfeld.de",
  "long": "10.166666666",
  "lat": "50.0",
  "item": "Q553854",
  "typ": "Gemeinde in Deutschland"
}, {
  "name": "Bergtheim",
  "adresse": "Am Marktplatz 8\n97241 Bergtheim",
  "landkreis": "Landkreis Würzburg",
  "telefon": "+49 (0)9367 90071-0",
  "telefax": "+49 (0)9367 90071-90",
  "email": "poststelle@vgem-bergtheim.bayern.de",
  "website": "http://www.vgem-bergtheim.de",
  "long": "10.066666666",
  "lat": "49.9",
  "item": "Q255903",
  "typ": "Gemeinde in Deutschland"
}, {
  "name": "Bergheim",
  "adresse": "Tilly-Park 1a\n86633 Neuburg a. d. Donau",
  "landkreis": "Landkreis Neuburg-Schrobenhausen",
  "telefon": "+49 (0)8431 6719-0",
  "telefax": "+49 (0)8431 6719-40",
  "email": "verwaltung@vg-neuburg.de",
  "website": "http://www.gemeinde-bergheim.de",
  "long": "11.266666666",
  "lat": "48.766666666",
  "item": "Q514957",
  "typ": "Gemeinde in Deutschland"
}, {
  "name": "Bernbeuren",
  "adresse": "Marktplatz 4\n86975 Bernbeuren",
  "landkreis": "Landkreis Weilheim-Schongau",
  "telefon": "+49 (0)8860 9101-0",
  "telefax": "+49 (0)8860 9101-15",
  "email": "gemeinde@bernbeuren.de",
  "website": "http://www.bernbeuren.de",
  "long": "10.778611111",
  "lat": "47.738055555",
  "item": "Q513909",
  "typ": "Gemeinde in Deutschland"
}, {
  "name": "Berngau",
  "adresse": "Bahnhofstr. 12\n92318 Neumarkt i.d.OPf.",
  "landkreis": "Landkreis Neumarkt i.d.OPf.",
  "telefon": "+49 (0)9181 2912-0",
  "telefax": "+49 (0)9181 2912-150",
  "email": "info@vg-neumarkt.de",
  "website": "http://www.berngau.de",
  "long": "11.399166666",
  "lat": "49.252777777",
  "item": "Q504711",
  "typ": "Gemeinde in Deutschland"
}, {
  "name": "Bergkirchen",
  "adresse": "Postfach 8\n85230 Bergkirchen",
  "landkreis": "Landkreis Dachau",
  "telefon": "+49 (0)8131 6699-0",
  "telefax": "+49 (0)8131 6699-119",
  "email": "poststelle@bergkirchen.de",
  "website": "http://www.bergkirchen.de",
  "long": "11.366666666",
  "lat": "48.25",
  "item": "Q514940",
  "typ": "Gemeinde in Deutschland"
}, {
  "name": "Berglern",
  "adresse": "Marktplatz 8\n85456 Wartenberg",
  "landkreis": "Landkreis Erding",
  "telefon": "+49 (0)8762 7309-0",
  "telefax": "+49 (0)8762 7309-129",
  "email": "info@berglern.de",
  "website": "http://www.berglern.de",
  "long": "11.933333333",
  "lat": "48.383333333",
  "item": "Q511811",
  "typ": "Gemeinde in Deutschland"
}, {
  "name": "Bessenbach",
  "adresse": "Ludwig-Straub-Straße 2\n63856 Bessenbach",
  "landkreis": "Landkreis Aschaffenburg",
  "telefon": "+49 (0)6095 9711-0",
  "telefax": "+49 (0)6095 9711-30",
  "email": "poststelle@bessenbach.de",
  "website": "http://www.bessenbach.de",
  "long": "9.266666666",
  "lat": "49.966666666",
  "item": "Q331237",
  "typ": "Gemeinde in Deutschland"
}, {
  "name": "Bernried am Starnberger See",
  "adresse": "Dorfstr. 26\n82347 Bernried am Starnberger See",
  "landkreis": "Landkreis Weilheim-Schongau",
  "telefon": "+49 (0)8158 907670",
  "telefax": "+49 (0)8158 9076711",
  "email": "gemeinde@bernried.de",
  "website": "http://www.bernried.de",
  "long": "11.292222222",
  "lat": "47.865555555",
  "item": "Q31652",
  "typ": "Gemeinde in Deutschland"
}, {
  "name": "Betzigau",
  "adresse": "Rotkreuzstr. 2\n87488 Betzigau",
  "landkreis": "Landkreis Oberallgäu",
  "telefon": "+49 (0)831 57502-0",
  "telefax": "+49 (0)831 57502-22",
  "email": "betzigau@betzigau.de",
  "website": "http://www.betzigau.de/betzigau/cms/front_content.php?idcat=81",
  "long": "10.383333333",
  "lat": "47.733333333",
  "item": "Q549038",
  "typ": "Gemeinde in Deutschland"
}, {
  "name": "Bichl",
  "adresse": "Prälatenstrasse 7\n83671 Benediktbeuern",
  "landkreis": "Landkreis Bad Tölz-Wolfratshausen",
  "telefon": "+49 (0)8857 238",
  "telefax": "+49 (0)8857 697838",
  "email": "poessenbacher@bichl.de",
  "website": "http://www.bichl.de",
  "long": "11.411944444",
  "lat": "47.720555555",
  "item": "Q509296",
  "typ": "Gemeinde in Deutschland"
}, {
  "name": "Bidingen",
  "adresse": "Füssener Str. 12\n87640 Biessenhofen",
  "landkreis": "Landkreis Ostallgäu",
  "telefon": "+49 (0)8348 244",
  "telefax": "+49 (0)8348 673",
  "email": "info@bidingen.bayern.de",
  "website": "http://www.bidingen.de",
  "long": "10.733333333",
  "lat": "47.833333333",
  "item": "Q549554",
  "typ": "Gemeinde in Deutschland"
}, {
  "name": "Beutelsbach",
  "adresse": "Postfach 50\n94497 Aidenbach",
  "landkreis": "Landkreis Passau",
  "telefon": "+49 (0)8543 1378",
  "telefax": "+49 (0)8543 4678",
  "email": "info@beutelsbach.de",
  "website": "http://www.beutelsbach.de",
  "long": "13.113888888",
  "lat": "48.551944444",
  "item": "Q533019",
  "typ": "Gemeinde in Deutschland"
}, {
  "name": "Biberbach",
  "adresse": "Rathausplatz 1\n86485 Biberbach",
  "landkreis": "Landkreis Augsburg",
  "telefon": "+49 (0)8271 8018-0",
  "telefax": "+49 (0)8271 8018-40",
  "email": "poststelle@biberbach.de",
  "website": "http://www.markt-biberbach.de",
  "long": "10.816666666",
  "lat": "48.516666666",
  "item": "Q526553",
  "typ": "Gemeinde in Deutschland"
}, {
  "name": "Betzenstein",
  "adresse": "Nürnberger Str. 5\n91282 Betzenstein",
  "landkreis": "Landkreis Bayreuth",
  "telefon": "+49 (0)9244 9852-0",
  "telefax": "+49 (0)9244 9852-18",
  "email": "poststelle@vgem-betzenstein.bayern.de",
  "website": "http://www.betzenstein.de",
  "long": "11.4175",
  "lat": "49.680277777",
  "item": "Q182131",
  "typ": "Stadt in Deutschland"
}, {
  "name": "Biburg",
  "adresse": "Marienplatz 13\n93354 Siegenburg",
  "landkreis": "Landkreis Kelheim",
  "telefon": "+49 (0)9444 9784-0",
  "telefax": "+49 (0)9444 9784-24",
  "email": "poststelle-vgem-siegenburg@siegenburg.de",
  "website": "http://www.gemeinde-biburg.de",
  "long": "11.2592",
  "lat": "48.1513",
  "item": "Q27036759",
  "typ": "Gemeinde in Deutschland"
}, {
  "name": "Bibertal",
  "adresse": "Hauptstr. 2\n89346 Bibertal",
  "landkreis": "Landkreis Günzburg",
  "telefon": "+49 (0)8226 8690-0",
  "telefax": "+49 (0)8226 8690-29",
  "email": "rathaus@bibertal.de",
  "website": "http://www.bibertal.de",
  "long": "10.2",
  "lat": "48.4",
  "item": "Q313800",
  "typ": "Gemeinde in Deutschland"
}, {
  "name": "Bieberehren",
  "adresse": "Marktplatz 1\n97285 Röttingen",
  "landkreis": "Landkreis Würzburg",
  "telefon": "+49 (0)9338 9728-0",
  "telefax": "+49 (0)9338 9728-49",
  "email": "poststelle@vgem-roettingen.bayern.de",
  "website": "http://www.bieberehren.de",
  "long": "10.007777777",
  "lat": "49.515555555",
  "item": "Q527312",
  "typ": "Gemeinde in Deutschland"
}, {
  "name": "Biebelried",
  "adresse": "Friedrich-Ebert-Straße 5\n97318 Kitzingen",
  "landkreis": "Landkreis Kitzingen",
  "telefon": "+49 (0)9302 3813",
  "telefax": "+49 (0)9321 9166-150",
  "email": "info@vgem-kitzingen.de",
  "website": "http://www.biebelried.de",
  "long": "10.083333333",
  "lat": "49.766666666",
  "item": "Q512905",
  "typ": "Gemeinde in Deutschland"
}, {
  "name": "Binswangen",
  "adresse": "Postfach 1224\n86635 Wertingen",
  "landkreis": "Landkreis Dillingen a.d.Donau",
  "telefon": "+49 (0)8272 2591",
  "telefax": "+49 (0)8272 84-469",
  "email": "gemeinde@binswangen.de",
  "website": "http://www.binswangen.de",
  "long": "10.65",
  "lat": "48.566666666",
  "item": "Q510964",
  "typ": "Gemeinde in Deutschland"
}, {
  "name": "Bindlach",
  "adresse": "Rathausplatz 1\n95463 Bindlach",
  "landkreis": "Landkreis Bayreuth",
  "telefon": "+49 (0)9208 664-0",
  "telefax": "+49 (0)9208 664-49",
  "email": "gemeinde@bindlach.bayern.de",
  "website": "http://www.bindlach.de",
  "long": "11.611388888",
  "lat": "49.981111111",
  "item": "Q505002",
  "typ": "Gemeinde in Deutschland"
}, {
  "name": "Biessenhofen",
  "adresse": "Füssener Str. 12\n87640 Biessenhofen",
  "landkreis": "Landkreis Ostallgäu",
  "telefon": "+49 (0)8341 9365-0",
  "telefax": "+49 (0)8341 9365-55",
  "email": "info@biessenhofen.bayern.de",
  "website": "http://www.biessenhofen.de",
  "long": "10.633333333",
  "lat": "47.833333333",
  "item": "Q531945",
  "typ": "Gemeinde in Deutschland"
}, {
  "name": "Birkenfeld",
  "adresse": "Petzoltstr. 21\n97828 Marktheidenfeld",
  "landkreis": "Landkreis Main-Spessart",
  "telefon": "+49 (0)9398 355",
  "telefax": "+49 (0)9398 998891",
  "email": "info@vgem-marktheidenfeld.de",
  "website": "http://www.gemeinde-birkenfeld.de",
  "long": "9.7",
  "lat": "49.866666666",
  "item": "Q508714",
  "typ": "Gemeinde in Deutschland"
}, {
  "name": "Bischbrunn",
  "adresse": "Petzoltstr. 21\n97828 Marktheidenfeld",
  "landkreis": "Landkreis Main-Spessart",
  "telefon": "+49 (0)9394 366",
  "telefax": "+49 (0)9394 99891",
  "email": "info@bischbrunn.de",
  "website": "http://www.bischbrunn.de",
  "long": "9.489166666",
  "lat": "49.870277777",
  "item": "Q504048",
  "typ": "Gemeinde in Deutschland"
}, {
  "name": "Bischberg",
  "adresse": "Schulstr. 16\n96120 Bischberg",
  "landkreis": "Landkreis Bamberg",
  "telefon": "+49 (0)951 96638-0",
  "telefax": "+49 (0)951 96638-99",
  "email": "gemeinde@bischberg.de",
  "website": "http://www.bischberg.de",
  "long": "10.816666666",
  "lat": "49.9",
  "item": "Q530525",
  "typ": "Gemeinde in Deutschland"
}, {
  "name": "Bischofsgrün",
  "adresse": "Jägerstraße 9\n95493 Bischofsgrün",
  "landkreis": "Landkreis Bayreuth",
  "telefon": "+49 (0)9276 92609-0",
  "telefax": "+49 (0)9276 92609-60",
  "email": "gemeindeverwaltung@bischofsgruen.bayern.de",
  "website": "http://www.bischofsgruen.de",
  "long": "11.796111111",
  "lat": "50.0525",
  "item": "Q253123",
  "typ": "Gemeinde in Deutschland"
}, {
  "name": "Birgland",
  "adresse": "Am Dorfplatz 5\n92278 Illschwang",
  "landkreis": "Landkreis Amberg-Sulzbach",
  "telefon": "+49 (0)9666 913114",
  "telefax": "+49 (0)9666 913125",
  "email": "gemeinde@birgland.de",
  "website": "http://www.birgland.de",
  "long": "11.633333333",
  "lat": "49.416666666",
  "item": "Q137593",
  "typ": "Gemeinde in Deutschland"
}, {
  "name": "Blankenbach",
  "adresse": "Marktplatz 1\n63825 Schöllkrippen",
  "landkreis": "Landkreis Aschaffenburg",
  "telefon": "+49 (0)6024 631460",
  "telefax": "+49 (0)6024 631461",
  "email": "kontakt@vg-schoellkrippen.de",
  "website": "http://www.gemeinde-blankenbach.de",
  "long": "9.233333333",
  "lat": "50.066666666",
  "item": "Q506590",
  "typ": "Gemeinde in Deutschland"
}, {
  "name": "Blaibach",
  "adresse": "Kirchplatz 6\n93476 Blaibach",
  "landkreis": "Landkreis Cham",
  "telefon": "+49 (0)9941 9450-0",
  "telefax": "+49 (0)9941 9450-20",
  "email": "poststelle@blaibach.de",
  "website": "http://www.blaibach.de",
  "long": "12.816666666",
  "lat": "49.166666666",
  "item": "Q508744",
  "typ": "Gemeinde in Deutschland"
}, {
  "name": "Böbing",
  "adresse": "Klosterhof 42\n82401 Rottenbuch",
  "landkreis": "Landkreis Weilheim-Schongau",
  "telefon": "+49 (0)8867 9100-0",
  "telefax": "+49 (0)8867 9100-16",
  "email": "gemeinde@boebing.de",
  "website": "http://www.boebing.de",
  "long": "10.983333333",
  "lat": "47.75",
  "item": "Q515841",
  "typ": "Gemeinde in Deutschland"
}, {
  "name": "Bischofswiesen",
  "adresse": "Rathausplatz 2\n83483 Bischofswiesen",
  "landkreis": "Landkreis Berchtesgadener Land",
  "telefon": "+49 (0)8652 8809-0",
  "telefax": "+49 (0)8652 8809-99",
  "email": "poststelle@bischofswiesen.de",
  "website": "http://www.gemeinde.bischofswiesen.de",
  "long": "12.963888888",
  "lat": "47.649444444",
  "item": "Q256985",
  "typ": "Gemeinde in Deutschland"
}, {
  "name": "Bischofsmais",
  "adresse": "Hauptstr. 34\n94253 Bischofsmais",
  "landkreis": "Landkreis Regen",
  "telefon": "+49 (0)9920 9404-0",
  "telefax": "+49 (0)9920 9404-40",
  "email": "poststelle@bischofsmais.landkreis-regen.de",
  "website": "http://www.bischofsmais.de",
  "long": "13.083333333",
  "lat": "48.916666666",
  "item": "Q491426",
  "typ": "Gemeinde in Deutschland"
}, {
  "name": "Bissingen",
  "adresse": "Am Hofgarten 1\n86657 Bissingen",
  "landkreis": "Landkreis Dillingen a.d.Donau",
  "telefon": "+49 (0)9084 9697-0",
  "telefax": "+49 (0)9084 9697-30",
  "email": "markt@bissingen.de",
  "website": "http://www.bissingen.de",
  "long": "10.616666666",
  "lat": "48.716666666",
  "item": "Q515410",
  "typ": "Gemeinde in Deutschland"
}, {
  "name": "Blaichach",
  "adresse": "Postfach 1140\n87542 Blaichach",
  "landkreis": "Landkreis Oberallgäu",
  "telefon": "+49 (0)8321 8008-0",
  "telefax": "+49 (0)8321 8008-50",
  "email": "blaichach@blaichach.de",
  "website": "https://www.gemeinde-blaichach.de/",
  "long": "10.266666666",
  "lat": "47.533333333",
  "item": "Q513048",
  "typ": "Gemeinde in Deutschland"
}, {
  "name": "Blindheim",
  "adresse": "Herzog-Philipp-Ludwig-Str. 10\n89420 Höchstädt a.d.Donau",
  "landkreis": "Landkreis Dillingen a.d.Donau",
  "telefon": "+49 (0)9074 2028",
  "telefax": "+49 (0)9074 6322",
  "email": "info@hoechstaedt.de",
  "website": "http://www.blindheim.de",
  "long": "10.633333333",
  "lat": "48.633333333",
  "item": "Q514914",
  "typ": "Gemeinde in Deutschland"
}, {
  "name": "Bobingen",
  "adresse": "Postfach 1310\n86394 Bobingen",
  "landkreis": "Landkreis Augsburg",
  "telefon": "+49 (0)8234 8002-0",
  "telefax": "+49 (0)8234 8002-25",
  "email": "poststelle@bobingen.de",
  "website": "https://www.stadt-bobingen.de",
  "long": "10.816666666",
  "lat": "48.266666666",
  "item": "Q254801",
  "typ": "Stadt in Deutschland"
}, {
  "name": "Bischofsheim i.d.Rhön",
  "adresse": "Kirchplatz 4\n97653 Bischofsheim i.d.Rhön",
  "landkreis": "Landkreis Rhön-Grabfeld",
  "telefon": "+49 (0)9772 9101-0",
  "telefax": "+49 (0)9772 9101-29",
  "email": "poststelle@bischofsheim-rhoen.de",
  "website": "https://www.bischofsheim.rhoen-saale.net",
  "long": "10.016666666",
  "lat": "50.4",
  "item": "Q541693",
  "typ": "Stadt in Deutschland"
}, {
  "name": "Böhmfeld",
  "adresse": "Hofstetter Str. 3\n85113 Böhmfeld",
  "landkreis": "Landkreis Eichstätt",
  "telefon": "+49 (0)8458 3997-0",
  "telefax": "+49 (0)8458 3997-27",
  "email": "poststelle@eitensheim.de",
  "website": "http://www.boehmfeld.eu",
  "long": "11.366666666",
  "lat": "48.866666666",
  "item": "Q510791",
  "typ": "Gemeinde in Deutschland"
}, {
  "name": "Bolsterlang",
  "adresse": "Rathausweg 4\n87536 Fischen i.Allgäu",
  "landkreis": "Landkreis Oberallgäu",
  "telefon": "+49 (0)8326 366708",
  "telefax": "+49 (0)8326 9406",
  "email": "gemeinde@bolsterlang.de",
  "website": "https://www.hoernergruppe.de/infos/gemeindedaten/bolsterlang/",
  "long": "10.233333333",
  "lat": "47.466666666",
  "item": "Q203754",
  "typ": "Gemeinde in Deutschland"
}, {
  "name": "Bogen",
  "adresse": "Stadtplatz 56\n94327 Bogen",
  "landkreis": "Landkreis Straubing-Bogen",
  "telefon": "+49 (0)9422 505-0",
  "telefax": "+49 (0)9422 505-182",
  "email": "info@bogen.de",
  "website": "http://www.bogen.de",
  "long": "12.683333333",
  "lat": "48.916666666",
  "item": "Q26357",
  "typ": "Stadt in Deutschland"
}, {
  "name": "Böhen",
  "adresse": "Postfach 1129\n87720 Ottobeuren",
  "landkreis": "Landkreis Unterallgäu",
  "telefon": "+49 (0)8338 208",
  "telefax": "+49 (0)8338 1096",
  "email": "info@gemeinde-boehen.de",
  "website": "http://www.boehen.de",
  "long": "10.3",
  "lat": "47.883333333",
  "item": "Q547931",
  "typ": "Gemeinde in Deutschland"
}, {
  "name": "Bodenmais",
  "adresse": "Bahnhofstr. 56\n94249 Bodenmais",
  "landkreis": "Landkreis Regen",
  "telefon": "+49 (0)9924 778-0",
  "telefax": "+49 (0)9924 778-250",
  "email": "geschaeftsleitung@bodenmais.landkreis-regen.de",
  "website": "https://www.bodenmais.de/buergerservice/",
  "long": "13.1",
  "lat": "49.066666666",
  "item": "Q513654",
  "typ": "Gemeinde in Deutschland"
}, {
  "name": "Bodenkirchen",
  "adresse": "Ebenhauserstr. 1\n84155 Bodenkirchen",
  "landkreis": "Landkreis Landshut",
  "telefon": "+49 (0)8745 9686-0",
  "telefax": "+49 (0)8745 9686-19",
  "email": "info@gemeinde-bodenkirchen.de",
  "website": "https://www.bodenkirchen.de",
  "long": "12.366666666",
  "lat": "48.366666666",
  "item": "Q261280",
  "typ": "Gemeinde in Deutschland"
}, {
  "name": "Bodolz",
  "adresse": "Rathausstr. 20\n88131 Bodolz",
  "landkreis": "Landkreis Lindau (Bodensee)",
  "telefon": "+49 (0)8382 9330-0",
  "telefax": "+49 (0)8382 9330-21",
  "email": "poststelle@bodolz.de",
  "website": "http://www.bodolz.de",
  "long": "9.661111111",
  "lat": "47.572222222",
  "item": "Q552427",
  "typ": "Gemeinde in Deutschland"
}, {
  "name": "Bodenwöhr",
  "adresse": "Postfach 1109\n92437 Bodenwöhr",
  "landkreis": "Landkreis Schwandorf",
  "telefon": "+49 (0)9434 9402-0",
  "telefax": "+49 (0)9434 9402-20",
  "email": "info@bodenwoehr.de",
  "website": "http://www.bodenwoehr.de",
  "long": "12.316666666",
  "lat": "49.266666666",
  "item": "Q545325",
  "typ": "Gemeinde in Deutschland"
}, {
  "name": "Böbrach",
  "adresse": "Rathausplatz 1\n94255 Böbrach",
  "landkreis": "Landkreis Regen",
  "telefon": "+49 (0)9923 80100-0",
  "telefax": "+49 (0)9923 80100-7",
  "email": "poststelle@boebrach.de",
  "website": "http://www.boebrach.de",
  "long": "13.033333333",
  "lat": "49.066666666",
  "item": "Q491450",
  "typ": "Gemeinde in Deutschland"
}, {
  "name": "Bockhorn",
  "adresse": "Rathausplatz 1\n85461 Bockhorn",
  "landkreis": "Landkreis Erding",
  "telefon": "+49 (0)8122 9953-0",
  "telefax": "+49 (0)8122 9953-23",
  "email": "gemeinde@bockhorn-obb.bayern.de",
  "website": "http://www.bockhorn-obb.de",
  "long": "11.983333333",
  "lat": "48.316666666",
  "item": "Q533203",
  "typ": "Gemeinde in Deutschland"
}, {
  "name": "Bonstetten",
  "adresse": "Postfach 24\n86463 Welden",
  "landkreis": "Landkreis Augsburg",
  "telefon": "+49 (0)8293 909400",
  "telefax": "+49 (0)8293 909500",
  "email": "gemeinde@bonstetten.de",
  "website": "http://www.bonstetten.de",
  "long": "10.7",
  "lat": "48.433333333",
  "item": "Q542907",
  "typ": "Gemeinde in Deutschland"
}, {
  "name": "Breitenbrunn",
  "adresse": "Von-Tilly-Str. 7\n92363 Breitenbrunn",
  "landkreis": "Landkreis Neumarkt i.d.OPf.",
  "telefon": "+49 (0)9495 9403-0",
  "telefax": "+49 (0)9495 9403-50",
  "email": "info@breitenbrunn.de",
  "website": "http://www.breitenbrunn.de",
  "long": "10.383333333",
  "lat": "48.133333333",
  "item": "Q566637",
  "typ": "Gemeinde in Deutschland"
}, {
  "name": "Breitbrunn",
  "adresse": "Georg-Schäfer-Str. 56\n97500 Ebelsbach",
  "landkreis": "Landkreis Haßberge",
  "telefon": "+49 (0)9536 1505",
  "telefax": "+49 (0)9522 725-66",
  "email": "info@breitbrunn.de",
  "website": "http://www.breitbrunn.de",
  "long": "12.4",
  "lat": "47.883333333",
  "item": "Q571432",
  "typ": "Gemeinde in Deutschland"
}, {
  "name": "Breitengüßbach",
  "adresse": "Kirchplatz 4\n96149 Breitengüßbach",
  "landkreis": "Landkreis Bamberg",
  "telefon": "+49 (0)9544 9223-0",
  "telefax": "+49 (0)9544 9223-55",
  "email": "gemeinde@breitenguessbach.de",
  "website": "http://www.breitenguessbach.de",
  "long": "10.891666666",
  "lat": "49.891666666",
  "item": "Q529392",
  "typ": "Gemeinde in Deutschland"
}, {
  "name": "Brannenburg",
  "adresse": "Schulweg 2\n83098 Brannenburg",
  "landkreis": "Landkreis Rosenheim",
  "telefon": "+49 (0)8034 9061-0",
  "telefax": "+49 (0)8034 9061-33",
  "email": "gemeinde@brannenburg.de",
  "website": "https://www.brannenburg.de",
  "long": "12.1",
  "lat": "47.733333333",
  "item": "Q533000",
  "typ": "Gemeinde in Deutschland"
}, {
  "name": "Boos",
  "adresse": "Fuggerstr. 3\n87737 Boos",
  "landkreis": "Landkreis Unterallgäu",
  "telefon": "+49 (0)8335 9829-0",
  "telefax": "+49 (0)8335 9829-30",
  "email": "poststelle@vg-boos.de",
  "website": "http://www.vgem-boos.de",
  "long": "9.580277777",
  "lat": "47.955833333",
  "item": "Q533779",
  "typ": "Gemeinde in Deutschland"
}, {
  "name": "Breitenberg",
  "adresse": "Rathausplatz 3\n94139 Breitenberg",
  "landkreis": "Landkreis Passau",
  "telefon": "+49 (0)8584 9618-0",
  "telefax": "+49 (0)8584 9618-26",
  "email": "info@breitenberg.de",
  "website": "https://www.breitenberg.de",
  "long": "9.616666666",
  "lat": "53.916666666",
  "item": "Q669065",
  "typ": "Gemeinde in Deutschland"
}, {
  "name": "Breitbrunn a.Chiemsee",
  "adresse": "Gollenshausener Str. 1\n83254 Breitbrunn a.Chiemsee",
  "landkreis": "Landkreis Rosenheim",
  "telefon": "+49 (0)8054 9039-0",
  "telefax": "+49 (0)8054 9039-17",
  "email": "poststelle@vg-breitbrunn.de",
  "website": "http://www.breitbrunn.com",
  "long": "12.4",
  "lat": "47.883333333",
  "item": "Q571432",
  "typ": "Gemeinde in Deutschland"
}, {
  "name": "Brand",
  "adresse": "Max-Reger-Straße 7\n95682 Brand",
  "landkreis": "Landkreis Tirschenreuth",
  "telefon": "+49 (0)9236 230",
  "telefax": "+49 (0)9236 6151",
  "email": "poststelle@vgem-neusorg.de",
  "website": "http://www.gemeinde-brand.de",
  "long": "6.165",
  "lat": "50.7489",
  "item": "Q151287",
  "typ": "Gemeinde in Deutschland"
}, {
  "name": "Breitenbrunn",
  "adresse": "Kirchstr. 1\n87739 Breitenbrunn",
  "landkreis": "Landkreis Unterallgäu",
  "telefon": "+49 (0)8263 381",
  "telefax": "+49 (0)8263 645",
  "email": "breitenbrunn@vgem-pfaffenhausen.de",
  "website": "http://www.breitenbrunn-schwaben.de",
  "long": "10.383333333",
  "lat": "48.133333333",
  "item": "Q566637",
  "typ": "Gemeinde in Deutschland"
}, {
  "name": "Bruck",
  "adresse": "Postfach 1120\n85623 Glonn",
  "landkreis": "Landkreis Ebersberg",
  "telefon": "+49 (0)8092 84168",
  "telefax": "+49 (0)8092 84147",
  "email": "info@gemeinde-bruck.de",
  "website": "http://www.vg-glonn.de/bruck.html",
  "long": "12.308055555",
  "lat": "49.25",
  "item": "Q583230",
  "typ": "Gemeinde in Deutschland"
}, {
  "name": "Bruck i.d.OPf.",
  "adresse": "Postfach 1165\n92432 Bruck i.d.OPf.",
  "landkreis": "Landkreis Schwandorf",
  "telefon": "+49 (0)9434 9412-0",
  "telefax": "+49 (0)9434 9412-26",
  "email": "info@bruck.eu",
  "website": "http://www.bruck.eu",
  "long": "12.308055555",
  "lat": "49.25",
  "item": "Q583230",
  "typ": "Gemeinde in Deutschland"
}, {
  "name": "Brunnthal",
  "adresse": "Postfach 30\n85647 Brunnthal",
  "landkreis": "Landkreis München",
  "telefon": "+49 (0)8102 890-0",
  "telefax": "+49 (0)8102 890-99",
  "email": "poststelle@brunnthal.bayern.de",
  "website": "http://www.brunnthal.de",
  "long": "11.683333333",
  "lat": "48.016666666",
  "item": "Q251101",
  "typ": "Gemeinde in Deutschland"
}, {
  "name": "Bruckberg",
  "adresse": "Ansbacher Str. 15\n91629 Weihenzell",
  "landkreis": "Landkreis Ansbach",
  "telefon": "+49 (0)9824 227",
  "telefax": "+49 (0)9824 5680",
  "email": "gemeinde@bruckberg.de",
  "website": "http://www.bruckberg.de",
  "long": "10.7",
  "lat": "49.35",
  "item": "Q503596",
  "typ": "Gemeinde in Deutschland"
}, {
  "name": "Bruckberg",
  "adresse": "Rathausplatz 1\n84079 Bruckberg",
  "landkreis": "Landkreis Landshut",
  "telefon": "+49 (0)8765 9301-0",
  "telefax": "+49 (0)8765 9301-22",
  "email": "info@bruckberg.org",
  "website": "http://www.bruckberg.org",
  "long": "10.7",
  "lat": "49.35",
  "item": "Q503596",
  "typ": "Gemeinde in Deutschland"
}, {
  "name": "Brunn",
  "adresse": "Postfach 0066\n93162 Laaber",
  "landkreis": "Landkreis Regensburg",
  "telefon": "+49 (0)9498 9401-0",
  "telefax": "+49 (0)9498 9401-99",
  "email": "vg.laaber@realrgb.de",
  "website": "http://www.gemeinde-brunn.de",
  "long": "13.366666666",
  "lat": "53.666666666",
  "item": "Q49431",
  "typ": "Gemeinde in Deutschland"
}, {
  "name": "Brennberg",
  "adresse": "Rathausplatz 1\n93086 Wörth a.d.Donau",
  "landkreis": "Landkreis Regensburg",
  "telefon": "+49 (0)9482 9403-0",
  "telefax": "+49 (0)9482 9403-40",
  "email": "vg.woerth@realrgb.de",
  "website": "http://www.brennberg.de",
  "long": "12.391666666",
  "lat": "49.076111111",
  "item": "Q489160",
  "typ": "Gemeinde in Deutschland"
}, {
  "name": "Breitenthal",
  "adresse": "Postfach 1334\n86371 Krumbach (Schwaben)",
  "landkreis": "Landkreis Günzburg",
  "telefon": "+49 (0)8282 995299",
  "telefax": "+49 (0)8282 995327",
  "email": "info@vg-krumbach.de",
  "website": "http://www.breitenthal-schwaben.de",
  "long": "10.3",
  "lat": "48.233333333",
  "item": "Q627506",
  "typ": "Gemeinde in Deutschland"
}, {
  "name": "Bruckmühl",
  "adresse": "Postfach 1149\n83044 Bruckmühl",
  "landkreis": "Landkreis Rosenheim",
  "telefon": "+49 (0)8062 59-0",
  "telefax": "+49 (0)8062 59-9010",
  "email": "rathaus@bruckmuehl.de",
  "website": "http://www.bruckmuehl.de",
  "long": "11.916666666",
  "lat": "47.883333333",
  "item": "Q545290",
  "typ": "Gemeinde in Deutschland"
}, {
  "name": "Brunnen",
  "adresse": "Herzoganger 1\n86529 Schrobenhausen",
  "landkreis": "Landkreis Neuburg-Schrobenhausen",
  "telefon": "+49 (0)8252 8951-0",
  "telefax": "+49 (0)8252 8951-50",
  "email": "poststelle@vgem-sob.de",
  "website": "http://www.gemeindebrunnen.de",
  "long": "11.3",
  "lat": "48.633333333",
  "item": "Q525915",
  "typ": "Gemeinde in Deutschland"
}, {
  "name": "Bubesheim",
  "adresse": "Obere Dorfstr. 3a\n89359 Kötz",
  "landkreis": "Landkreis Günzburg",
  "telefon": "+49 (0)8221 4353",
  "telefax": "+49 (0)8221 37011",
  "email": "info@vg-koetz.de",
  "website": "http://www.bubesheim.de",
  "long": "10.25",
  "lat": "48.433333333",
  "item": "Q505835",
  "typ": "Gemeinde in Deutschland"
}, {
  "name": "Buch a.Buchrain",
  "adresse": "Fröbelweg 1\n85669 Pastetten",
  "landkreis": "Landkreis Erding",
  "telefon": "+49 (0)8124 4443-0",
  "telefax": "+49 (0)8124 4443-29",
  "email": "info@buchambuchrain.de",
  "website": "http://www.buchambuchrain.de",
  "long": "12.0",
  "lat": "48.216666666",
  "item": "Q526509",
  "typ": "Gemeinde in Deutschland"
}, {
  "name": "Bubenreuth",
  "adresse": "Postfach 10\n91088 Bubenreuth",
  "landkreis": "Landkreis Erlangen-Höchstadt",
  "telefon": "+49 (0)9131 8839-0",
  "telefax": "+49 (0)9131 8839-22",
  "email": "info@bubenreuth.de",
  "website": "https://www.bubenreuth.de",
  "long": "11.017222222",
  "lat": "49.627777777",
  "item": "Q503669",
  "typ": "Gemeinde in Deutschland"
}, {
  "name": "Buchbrunn",
  "adresse": "Friedrich-Ebert-Straße 5\n97318 Kitzingen",
  "landkreis": "Landkreis Kitzingen",
  "telefon": "+49 (0)9321 4035",
  "telefax": "+49 (0)9321 9166-150",
  "email": "info@vgem-kitzingen.de",
  "website": "http://www.buchbrunn.de",
  "long": "10.133333333",
  "lat": "49.766666666",
  "item": "Q503814",
  "typ": "Gemeinde in Deutschland"
}, {
  "name": "Büchenbach",
  "adresse": "Rother Str. 8\n91186 Büchenbach",
  "landkreis": "Landkreis Roth",
  "telefon": "+49 (0)9171 9795-0",
  "telefax": "+49 (0)9171 9795-90",
  "email": "info@buechenbach.de",
  "website": "http://www.buechenbach.de",
  "long": "11.066666666",
  "lat": "49.266666666",
  "item": "Q527283",
  "typ": "Gemeinde in Deutschland"
}, {
  "name": "Buchbach",
  "adresse": "Postfach 53\n84428 Buchbach",
  "landkreis": "Landkreis Mühldorf a.Inn",
  "telefon": "+49 (0)8086 9307-0",
  "telefax": "+49 (0)8086 9307-30",
  "email": "rathaus@buchbach.de",
  "website": "http://www.buchbach.de",
  "long": "12.283333333",
  "lat": "48.316666666",
  "item": "Q531787",
  "typ": "Gemeinde in Deutschland"
}, {
  "name": "Buch a.Erlbach",
  "adresse": "Rathausplatz 1\n84172 Buch a.Erlbach",
  "landkreis": "Landkreis Landshut",
  "telefon": "+49 (0)8709 9221-0",
  "telefax": "+49 (0)8709 9221-30",
  "email": "poststelle@buch-am-erlbach.de",
  "website": "http://www.buch-am-erlbach.de",
  "long": "12.05",
  "lat": "48.45",
  "item": "Q254025",
  "typ": "Gemeinde in Deutschland"
}, {
  "name": "Buchdorf",
  "adresse": "Hauptstraße 94\n86675 Buchdorf",
  "landkreis": "Landkreis Donau-Ries",
  "telefon": "+49 (0)9099 1261",
  "telefax": "+49 (0)9099 1431",
  "email": "poststelle@gemeinde-buchdorf.de",
  "website": "http://www.gemeinde-buchdorf.de",
  "long": "10.816666666",
  "lat": "48.766666666",
  "item": "Q503061",
  "typ": "Gemeinde in Deutschland"
}, {
  "name": "Buch",
  "adresse": "Friedhofweg 2\n89290 Buch",
  "landkreis": "Landkreis Neu-Ulm",
  "telefon": "+49 (0)7343 9603-0",
  "telefax": "+49 (0)7343 9603-23",
  "email": "poststelle@markt-buch.de",
  "website": "http://www.markt-buch.de",
  "long": "12.05",
  "lat": "48.45",
  "item": "Q254025",
  "typ": "Gemeinde in Deutschland"
}, {
  "name": "Buch a.Wald",
  "adresse": "Anton-Roth-Weg 9\n91583 Schillingsfürst",
  "landkreis": "Landkreis Ansbach",
  "telefon": "+49 (0)9867 264",
  "telefax": "+49 (0)9867 978691",
  "email": "gemeinde@buchamwald.de",
  "website": "http://www.buchamwald.de",
  "long": "10.334838888",
  "lat": "49.3302",
  "item": "Q502825",
  "typ": "Gemeinde in Deutschland"
}, {
  "name": "Büchlberg",
  "adresse": "Hauptstr. 5\n94124 Büchlberg",
  "landkreis": "Landkreis Passau",
  "telefon": "+49 (0)8505 9008-0",
  "telefax": "+49 (0)8505 9008-48",
  "email": "info@buechlberg.de",
  "website": "https://www.buechlberg.de",
  "long": "13.510833333",
  "lat": "48.668055555",
  "item": "Q502916",
  "typ": "Gemeinde in Deutschland"
}, {
  "name": "Buckenhof",
  "adresse": "Erlanger Straße 40\n91080 Uttenreuth",
  "landkreis": "Landkreis Erlangen-Höchstadt",
  "telefon": "+49 (0)9131 5069-0",
  "telefax": "+49 (0)9131 5069-109",
  "email": "mail@vg-uttenreuth.de",
  "website": "http://www.buckenhof.de",
  "long": "11.052222222",
  "lat": "49.591388888",
  "item": "Q999609",
  "typ": "Gemeinde in Deutschland"
}, {
  "name": "Buchloe",
  "adresse": "Postfach 240\n86802 Buchloe",
  "landkreis": "Landkreis Ostallgäu",
  "telefon": "+49 (0)8241 5001-0",
  "telefax": "+49 (0)8241 5001-40",
  "email": "stadt@buchloe.de",
  "website": "http://www.buchloe.de",
  "long": "10.725",
  "lat": "48.0375",
  "item": "Q265110",
  "typ": "Stadt in Deutschland"
}, {
  "name": "Bundorf",
  "adresse": "Postfach 1134\n97457 Hofheim i.UFr.",
  "landkreis": "Landkreis Haßberge",
  "telefon": "+49 (0)9523 9229-0",
  "telefax": "+49 (0)9523 267",
  "email": "poststelle@vghofheim.de",
  "website": "http://www.bundorf.de",
  "long": "10.516666666",
  "lat": "50.216666666",
  "item": "Q508787",
  "typ": "Gemeinde in Deutschland"
}, {
  "name": "Buchhofen",
  "adresse": "Graf-Ulrich-Philipp-Platz 1\n94554 Moos",
  "landkreis": "Landkreis Deggendorf",
  "telefon": "+49 (0)9938 9502-0",
  "telefax": "+49 (0)9938 9502-26",
  "email": "poststelle@vgem-moos.bayern.de",
  "website": "http://www.gemeinde-buchhofen.de",
  "long": "12.916666666",
  "lat": "48.7",
  "item": "Q504041",
  "typ": "Gemeinde in Deutschland"
}, {
  "name": "Burgbernheim",
  "adresse": "Rathausplatz 1\n91593 Burgbernheim",
  "landkreis": "Landkreis Neustadt a.d.Aisch-Bad Windsheim",
  "telefon": "+49 (0)9843 309-0",
  "telefax": "+49 (0)9843 309-30",
  "email": "info@burgbernheim.de",
  "website": "http://www.burgbernheim.de",
  "long": "10.316666666",
  "lat": "49.45",
  "item": "Q502450",
  "typ": "Stadt in Deutschland"
}, {
  "name": "Burgberg i.Allgäu",
  "adresse": "Grüntenstr. 2\n87545 Burgberg i.Allgäu",
  "landkreis": "Landkreis Oberallgäu",
  "telefon": "+49 (0)8321 6722-0",
  "telefax": "+49 (0)8321 6722-22",
  "email": "info@burgberg.de",
  "website": "https://www.gemeinde-burgberg.de",
  "long": "10.283333333",
  "lat": "47.533333333",
  "item": "Q528562",
  "typ": "Gemeinde in Deutschland"
}, {
  "name": "Burgebrach",
  "adresse": "Hauptstr. 1-3\n96138 Burgebrach",
  "landkreis": "Landkreis Bamberg",
  "telefon": "+49 (0)9546 9416-0",
  "telefax": "+49 (0)9546 9416-10",
  "email": "verwaltung@vg-burgebrach.de",
  "website": "http://www.burgebrach.de",
  "long": "10.75",
  "lat": "49.816666666",
  "item": "Q513956",
  "typ": "Gemeinde in Deutschland"
},